dispnum,incidnum,year,month,day,mid21location,midlocmeasuringpoint,lat,lng,precision,onset
2,2001,1902,7,-9,Alaska-Canadian border,"Juneau, Alaska",58.50917,-134.6889,4,1
3,3001,1913,5,2,Austria's border with Serbia,"Belgrade, Yug",44.81194,20.46556,4,1
4,4001,1946,5,15,Corfu Channel,"Kerkira, GRC",39.62,19.91972,4,1
7,7001,1951,10,13,Suez canal zone,"Suez canal, UAR",29.91667,32.55,4,1
8,8001,1856,7,-9,Iran,"Tehran, IRN",35.67194,51.42445,5,1
9,9001,1889,12,29,Waters off Mozambique,Maputo,-25.96528,32.58917,4,1
11,11001,1938,3,11,Austrian Border,Vienna,48.2,16.36667,4,1
12,12001,1938,3,11,.,ger-cze border,50.5,13,4,1
13,13001,1863,4,6,.,S. japanese waters,32.13,129.78,5,1
14,14001,1895,10,15,Constantinople,"Istanbul, TUR",41.01861,28.96472,1,1
15,15001,1839,1,-9,Maine-New Brunswick Border,"Fredericton, CAN",45.95,-66.63333,3,1
16,16001,1897,12,25,.,straits between jap and kor,35.33,130.38,5,1
19,19001,1848,1,15,.,md point of venetian-auh border,46.83,11.97,4,1
20,20001,1945,11,18,Northern Iran,"Ardebil, Iran",38.24944,48.30139,3,1
21,21001,1912,11,21,.,md point of serb-auh border,45.89,19,4,1
22,22001,1940,6,9,Latvia,"Riga, Latvia",56.95,24.1,5,1
23,23001,1939,3,-9,Soviet/Estonian border,"Merimae, Estonia",57.69556,27.46083,4,1
25,25001,1831,8,2,.,md point of NTH-BEL border,51.42,5.279,4,1
26,26001,1948,3,21,.,berlin,52.52,13.38,1,1
27,27001,1961,7,25,.,berlin,52.52,13.38,1,1
28,28001,1961,7,19,"Bizerte,Tunisia","Bizerte, Tunisia",37.27444,9.873889,1,1
30,30001,1908,10,6,Bosnia,Sarajevo,43.85,18.38333,5,1
31,31001,1900,5,30,.,md point of manchurian empire,37.33,105.7,5,1
38,38001,1837,12,29,Niagara River,navy island,43.05,-79.01667,4,1
40,40001,1928,4,10,Shantung Province Manchuria,Tsinan,36.66833,116.9972,3,1
41,41001,1929,5,27,"Harbin, North Manchuria","Harbin, China",45.75,126.65,1,1
43,43001,1897,11,14,Kiaochau,"Kiachow, China",38.02583,110.4803,1,1
50,50001,1953,2,11,.,taiwan straits,24.61,119.9,5,1
51,51001,1950,6,24,.,"kaesong, s korea",37.96,126.57,1,1
53,53001,1956,8,22,Taiwan Straits,Taiwan Straits,24,119,5,1
55,55001,1923,8,29,Corfu,"Corfu, Greece",39.45333,19.91972,5,1
56,56001,1897,2,15,.,md point of aegean sea,38.96,25.11,5,1
57,57001,1853,5,31,.,md point of ottoman-russian border,47.88,28.93,4,1
61,61001,1962,1,28,.,waters off of cuba,22.74,-75.58,4,1
64,64001,1826,4,5,Danubian Principalities,"Galati, Romania",45.45,28.05,3,1
65,65001,1883,7,1,Danube region,"Belgrade, Yug",44.81194,20.46556,3,1
67,67001,1934,7,25,.,md point of cze-ger border,50.81,14.1,4,1
68,68001,1900,1,-9,.,md point of dom coast,18.67,-68.26,4,1
69,69001,1914,3,25,"Dominican Republic, Puerto Plata",Puerto Plata,19.8,-70.68333,1,1
71,71001,1850,1,17,"Piraeus, Greece","Piraeus, GRC",37.95,23.63333,1,1
72,72001,1934,6,23,"Durazzo, Albania",Durazzo,41.32306,19.43861,1,1
77,77001,1898,9,18,"Fashoda, Sudan",Fashoda,9.883333,32.11666,1,1
78,78001,1847,7,17,"Ferrara, Papal States",Ferrara,46.72278,12.13417,1,1
86,86001,1907,3,25,.,md point MOR coast,33.72,-7.27,4,1
88,88001,1870,7,6,.,md point FRA border with GER states,49,8.31,4,1
89,89001,1822,9,21,.,md point FRA-SPN border,42.67,0.61,4,1
91,91001,1887,5,22,Turkey,Ankara,39.935,32.86417,5,1
92,92001,1964,2,18,Libreville,"Libreville, Gabon",0.3833333,9.45,1,1
95,95001,1909,10,-9,Haitian Ports (Port-au-Prince),Port au Prince,18.53917,-72.335,4,1
96,96001,1886,4,26,.,entry to corinthian straits,38.24,21.47,4,1
100,100001,1914,12,13,Haiti,Port au Prince,18.53917,-72.335,5,1
104,104001,1880,3,-9,"Ili region, Xinjiang","Ili, Kazakhstan",43.87333,77.18445,3,1
106,106001,1895,4,23,.,between sakhalin and hokkaido,45.71,142.11,5,1
108,108001,1939,4,7,Albania,"Tirana, Albania",41.3275,19.81889,5,1
109,109001,1904,9,-9,Italian-Austrian Border,"Brennner Pass, Italy",47,11.5,4,1
111,111001,1934,11,22,.,"walwal, abys",7.05,45.4,1,1
112,112001,1860,9,7,.,md point of papal states,43.18,13.08,3,1
113,113001,1860,9,18,.,md point of kingdom of two sicilies,40.34,15.94,3,1
114,114001,1911,9,12,Tripoli,"Tripoli, Libya",32.8925,13.18,1,1
115,115001,1859,1,29,.,md point of venetian-auh border,46.83,11.97,4,1
119,119001,1885,3,12,"Penjdeh,Afghanistan",Vakhan,36.91667,72.3,3,1
121,121001,1853,7,2,Dardanelles Strait,Dardanelles Strait,40.25,26.41667,4,1
122,122001,1961,6,25,.,md point of IRQ-KUW border,29.7,47.24,4,1
123,123001,1845,4,-9,.,md point of ARG coast,-36.96,-56.63,4,1
125,125001,1958,5,14,.,suez canal,29.95,32.51,2,1
126,126001,1853,1,-9,.,md point of ottoman and AUH borders,45.39,22.63,4,1
127,127001,1921,3,3,.,md point GER border with FRA/BEL,49.43,6.69,4,1
128,128001,1905,1,11,.,md point of ottoman coast,38.39,27.06,4,1
129,129001,1931,9,18,Manchuria,"Harbin, China",45.75,126.65,3,1
131,131001,1899,9,14,.,usr/kor border-by coast,42.297,130.633,2,1
133,133001,1923,1,11,.,"memel, lithuania",55.5,21.5,1,1
134,134001,1939,3,20,Memel,"Memel, Lithuania",55.5,21.5,1,1
135,135001,1861,10,31,.,"veracruz, mexico",19.333,-96.666,1,1
136,136001,1914,4,9,"Veracruz, Mexico",Veracruz,31.44722,-112.3581,1,1
137,137001,1831,5,4,"Oporto, Portugal",Porto,41.15,-8.616667,1,1
139,139001,1934,12,-9,Jehol province,"Chengteh, China",40.9725,118.1697,3,1
141,141001,1880,6,7,.,"ragusa, ott emp",42.5,18.1,2,1
142,142001,1821,7,18,Danubian Principalities,"Galati, Romania",45.45,28.05,3,1
144,144001,1854,7,9,"Greytown, Nicaragua",Greytown,10.91667,-83.7,1,1
145,145001,1927,1,5,.,shanghai,31.2,121.5,1,1
146,146001,1827,8,16,.,md point of ottoman coast,38.39,27.06,4,1
147,147001,1821,1,-9,"Rieti, Italy (Papal States)",Rieti,42.4,12.85,1,1
148,148001,1959,4,22,Nepal/China Border,"zhabdun, china",29.65,84.16666,4,1
149,149001,1856,11,18,"Neuchatel, SWZ",Neuchatel,47,6.966667,1,1
151,151001,1926,5,2,"Bluefields, Nicaragua",Bluefields,12,-83.75,1,1
152,152001,1896,12,-9,Nigeria-Dahomey border,"parakou, benin",9.35,2.616667,4,1
153,153001,1833,6,22,.,straits of dardanelles,40.2,26.6,4,1
154,154001,1850,9,26,.,md point of GER AUH border,49.12,13.55,4,1
156,156001,1906,2,-9,"Taba, border of Palestine and Sinai","Taba, Egypt",29.48639,34.90194,1,1
157,157001,1937,7,7,China,"Beijing,",39.92889,116.3883,5,1
158,158001,1921,2,21,.,md point of border COS PAN,8.94,-82.53,4,1
159,159001,1903,11,2,Panama,panama city,8.966666,-79.53333,5,1
160,160001,1838,3,21,East Coast of Mexico near Veracruz,Veracruz,31.44722,-112.3581,4,1
164,164001,1904,5,31,.,md point MOR coast,33.72,-7.27,4,1
165,165001,1911,11,2,Northern Iran,tabriz,38.08,46.29194,3,1
166,166001,1908,4,16,Northern Iran,tabriz,38.08,46.29194,3,1
167,167001,1821,3,10,Piedmont,"Cuneo, Italy",44.38334,7.533333,3,1
169,169001,1939,9,1,Poland,Warsaw,52.25,21,5,1
172,172001,1962,1,7,.,taiwan straits,24.61,119.9,5,1
173,173001,1958,7,22,.,taiwan straits,24.61,119.9,5,1
174,174001,1936,3,7,.,md point GER border with FRA/BEL,49.43,6.69,4,1
175,175001,1849,2,18,.,rome,41.96,12.66,3,1
177,177001,1922,8,15,.,md point of GER FRA border,49,8.36,4,1
178,178001,1932,4,-9,Manchuria,"Harbin, China",45.75,126.65,3,1
179,179001,1939,10,8,Finland,Helsinki,60.17556,24.93417,5,1
180,180001,1903,6,29,.,lushun (formerly port arthur),38.8,121.26,3,1
182,182001,1935,1,8,.,Khalkhin Gol,47.92,117.8,5,1
183,183001,1939,5,11,.,Khalkhin Gol,47.92,117.8,1,1
184,184001,1938,7,9,Tumen River,"Tumen, China",31.76667,104.1,4,1
185,185001,1956,10,17,Poland,Warsaw,52.25,21,5,1
186,186001,1920,7,12,Poland,Warsaw,52.25,21,5,1
187,187001,1876,10,31,Balkans,"Sofia, Bulgaria",42.68333,23.31667,5,1
189,189001,1827,11,-9,Danubian Principalities,"Galati, Romania",45.45,28.05,3,1
194,194001,1863,4,17,.,md point of border GER DEN,54.92,9.26,4,1
196,196001,1893,2,4,.,Bangkok,13.91,100.61,1,1
197,197001,1917,11,21,.,near Vladivostok,43.11,131.99,2,1
198,198001,1848,9,1,.,md point of island of sicily,37.58,14.32,5,1
199,199001,1961,11,2,NEFA,"Nefa, India",28,94.5,3,1
200,200001,1955,9,1,.,md point of ISR-EGY border,30.37,34.7,4,1
202,202001,1883,4,14,China,Beijing,39.92889,116.3883,5,1
203,203001,1959,6,23,NEFA(Longju),"Longju, India",28.63333,93.55,3,1
207,207001,1858,1,-9,Gulf of Mexico,Center of Gulf,25,-90,5,1
208,208001,1953,3,10,.,md point of w ger-cze border,49.36,13.21,4,1
210,210001,1936,7,28,.,"near Guadalajara, spn",40.51,-2.96,2,1
211,211001,1920,4,2,.,md point of GER FRA border,49,8.36,4,1
216,216001,1836,11,-9,"Port of Sudjuk-Kali, Black Sea",Black Sea,43,35,5,1
220,220001,1870,7,25,.,"tianjin, china",39.13,117.2,1,1
224,224001,1865,11,4,.,japan,36.21,138.93,5,1
225,225001,1861,11,7,Bahama Channel,"Arch. De Camaguey, Cuba",22.3,-78,4,1
227,227001,1861,3,13,.,japanese waters off USR,45.02,140.02,5,1
228,228001,1881,3,-9,Tunisia,Tunis,36.80278,10.17972,5,1
230,230001,1919,4,29,"Adalia, SW Turkey",Adalia,36.88334,30.7,3,1
231,231001,1849,4,26,Livorno,"Livorno, Italy",43.55,10.31667,1,1
235,235001,1940,7,4,"Mers-el-Kebir, Algeria","Mers-el-Kebir, Algeria",35.73333,-0.7166666,1,1
236,236001,1849,10,6,.,md point border between USR and Ott empire,46.87,29.65,4,1
237,237001,1899,12,28,Delagoa Bay,"Delagoa Bay, Mozambique",-25.98333,32.7,3,1
238,238001,1913,5,10,"off Puerto Barrios, Guatemala",Puerto Barrios,15.71667,-88.6,2,1
239,239001,1864,7,22,.,japan,36.21,138.93,5,1
241,241001,1923,5,5,Artic Ocean near Murmansk,"Murmansk coast, Russia",68.66666,37.5,2,1
242,242001,1904,10,21,"Dogger Bank, North Sea","Dogger Bank, North Sea",55,3,4,1
246,246001,1960,4,22,.,cuba,21.8,-78.7,5,1
247,247001,1905,1,-9,Coast off Dominican Republic,Santo Domingo,18.46667,-69.9,4,1
248,248001,1932,1,31,.,manchuria,46.54,125.82,5,1
249,249001,1910,5,-9,Caribbean coast off Nicaragua,"La Barra, Nic",12.9,-83.53333,4,1
251,251001,1965,4,9,Taiwan Straits,Taiwan Straits,24,119,5,1
252,252001,1945,12,4,.,md point of TUR-USR border,40.924,43.861,4,1
253,253001,1960,5,1,.,USR border close to PAK,36.996,72.64,4,1
254,254001,1902,7,23,.,venezuela cost,10.23,-64.71,4,1
256,256001,1873,10,31,.,"guantanamo bay, cuba",20.08,-75.15,2,1
257,257001,1914,7,23,.,md point of AUH-SERB border,46.08,19.54,4,1
258,258001,1939,3,25,.,md point of border between POL and E. Prussia,54.398,21.627,4,1
259,259001,1956,6,3,Border of Yemen/Aden Protectorate,Aden directorate,12.8,45.03333,4,1
260,260001,1914,9,26,Shantung Province,Shantung Province,36,119,3,1
261,261001,1865,4,3,.,md point of AUH border with GER states,50.449,12.907,4,1
262,262001,1944,9,5,.,Bulgaria,42.6,25.31,5,1
266,266001,1958,2,8,Tunisia-Algeria border,"Tebessa, Algeria",35.40417,8.124166,4,1
301,301001,1835,11,-9,Carribean,"Kingston, Jamaica",18,-76.8,5,1
304,304001,1854,4,20,"Galicia, Transylvania","Sambir, Ukraine",49.51667,23.2,3,1
306,306001,1860,9,17,Rome in Central Italy,Rome,41.9,12.48333,1,1
307,307001,1877,5,6,Malta,"Valetta, Malta",35.89972,14.51472,5,1
309,309001,1898,3,25,Chinese coast,"Hsiamen, China",27.1,120.3167,4,1
310,310001,1905,10,-9,Caribbean Sea,Caribbean Sea,15,-75,5,1
311,311001,1908,4,2,"Tripoli, Libya","Tripoli, Libya",32.8925,13.18,1,1
312,312001,1910,11,-9,Waters off Tripoli,"Tripoli, Libya",32.8925,13.18,2,1
313,313001,1910,3,15,Southern Iran,Sirjan,26.23333,59.03333,3,1
314,314001,1911,10,2,"Albania, Adriatic Sea",Durres,41.32306,19.44139,5,1
315,315001,1911,7,1,.,md point of GER FRA border,49,8.36,4,1
316,316001,1912,1,16,Off the coast of Tunis,"Gulf of Tunis, Tunisia",37,10.5,2,1
317,317001,1912,11,2,.,Bulgaria,42.6,25.31,5,1
320,320001,1914,8,25,.,"Leuven, BEL",50.88,4.7,4,1
321,321001,1916,3,10,US-MEX border,mid pt on border,31.21917,-105.9383,4,1
322,322001,1916,11,29,Dominican Republic,Santo Domingo,18.46667,-69.9,5,1
323,323001,1916,6,6,.,md point of GRE coast,36.63,23.17,4,1
324,324001,1915,3,7,.,"crete, GRE",35.31,25.02,3,1
327,327001,1920,3,16,.,Istanbul,41.02,28.96,1,1
328,328001,1922,9,16,.,Istanbul,41.02,28.96,1,1
336,336001,1937,8,30,Off Coast of Algeria,Algiers,36.76305,3.050555,4,1
339,339001,1940,4,2,Pacific Ocean,mid pt of ocean,1.840833,-157.7667,5,1
343,343001,1966,10,2,Amur and Ussuri Rivers,"Amur River, Russia",52.93333,141.1667,4,1
346,346001,1968,4,23,.,md point of USR-CZE border,48.78,22.56,4,1
347,347001,1968,1,23,Sea of Japan,Japan Sea,43.5,135.75,5,1
349,349001,1969,3,2,Amur and Ussuri Rivers,"Amur River, Russia",52.93333,141.1667,4,1
350,350001,1969,2,14,Peruvian coastal waters,Lima,-12.05,-77.05,4,1
352,352001,1969,1,1,Burma,"Rangoon, Burma",16.78333,96.16666,5,1
354,354001,1972,9,1,North Sea-off of Iceland,"Hvalnes, Iceland",64.4,-14.55,4,1
355,355001,1974,1,15,Paracel Island,Paracel Islands,16.5,112.25,3,1
356,356001,1975,5,12,Waters off Cambodia,Chhung O,12.6,106.5167,4,1
358,358001,1975,10,20,NEFA Twang Tract,"tawang, india",27.67306,92.16472,3,1
360,360001,1975,10,-9,Belize-Guatemalan border,"Barranco, Belize",16,-88.91666,4,1
361,361001,1976,2,3,"Afars and Issas, Djibouti","Djibouti, Djibouti",11.595,43.14806,1,1
362,362001,1976,6,19,.,PRK-KOR border,38.27,127.3,4,1
363,363001,1976,2,4,Falkland Islands,Falkland Islands,-51.75,-59,5,1
364,364001,1974,3,14,Xinjiang Province,"Xinjiang, China",35.61278,111.2178,3,1
365,365001,1976,9,6,"Hokkaido, Japan Kurile Islands","Hokkaido, Japan",44,143,3,1
366,366001,1821,8,27,Franco-Spanish border,"San Sebastien, Spain",43.63334,-7.8,4,1
367,367001,1828,7,20,"Morea, Egypt",center pt of egypt,26.17583,30.1525,5,1
368,368001,1832,9,15,.,md point of BEL-GER border,50.458,6.489,4,1
370,370001,1830,8,28,.,md point of border between FRN & GER states,49.018,8.337,4,1
373,373001,1846,1,-9,Pacific Ocean off Oregon,OR coastline,42.78583,-124.6672,4,1
374,374001,1848,3,23,.,rome,41.96,12.66,3,1
375,375001,1848,4,1,.,GER-DEN border,54.926,9.272,4,1
377,377001,1852,4,-9,"Dardanelles, Turkey",Dardanelles Strait,40.25,26.41667,4,1
378,378001,1898,3,24,Ili Valley,"Ili, Kazakhstan",45.4,74.13333,3,1
379,379001,1898,3,24,Kuangchow,"Kwangchow Wan, China",21.1,110.4667,1,1
380,380001,1856,5,10,Gulf of Mexico,Center of Gulf,25,-90,5,1
381,381001,1864,11,19,Schleswing-Holstein,"Schleswing-Holstein, Germany",54,10.5,3,1
394,394001,1914,9,13,Albania,Tirana,41.3275,19.81889,5,1
395,395001,1916,2,-9,"Lisbon, Oporto","Oporto, Portugal",41.15,-8.616667,1,1
396,396001,1916,8,14,Border,ROM border,47.08889,21.76944,4,1
397,397001,1914,8,17,.,md point of BUL-YUG border,42.94,22.95,4,1
398,398001,1915,2,10,North Sea,North Sea,55.33333,3,5,1
399,399001,1916,10,9,"Atlantic Ocean, North Sea]",line between AO & NS,61.02833,-4.238333,4,1
400,400001,1917,4,5,Coast of Brazil,mid pt on brazilian coast,-10.32306,-36.33306,4,1
406,406001,1930,4,1,Walwal,"Wal Wal, Chad",14.36667,14.1,1,1
407,407001,1931,9,-9,Walwal,"Wal Wal, Chad",14.36667,14.1,1,1
409,409001,1937,5,31,Amur river,"Amur River, Russ",52.93333,141.1667,4,1
410,410001,1938,9,23,Soviet/Polish border,"Brest, Byelorussia",52.1,23.7,4,1
414,414001,1941,3,20,Atlantic Ocean,mid pt of ocean,16.41417,-37.57639,5,1
418,418001,1940,5,21,Greece-Albania border,"Leskovi Kolibi, Bulgaria",41.4,25.06667,4,1
420,420001,1941,4,30,.,"Basra, Iraq",30.49,47.82,2,1
421,421001,1941,10,12,Atlantic Ocean,mid pt of ocean,16.41417,-37.57639,5,1
501,501001,1831,2,5,Belgium,Brussels,50.83333,4.333333,5,1
502,502001,1864,2,12,.,md point of border between GER and HAN,52.466,10.753,4,1
503,503001,1939,9,23,Soviet/Latvian border,"Ostrov, Rus",57.8325,34.995,4,1
504,504001,1940,2,-9,Soviet/Lithuanian border,"Vilnius, Lithuania",54.68333,25.31667,4,1
505,505001,1940,6,10,Soviet/Estonian border,"Polna, Russia",58.45055,28.15639,4,1
506,506001,1881,7,12,"Tongking, Annam","Tongking, Vietnam",22,105,1,1
507,507001,1882,4,25,"Hanoi, Gulf of Tonkin","Hanoi, Vietnam",21.03333,105.85,2,1
508,508001,1866,7,9,Adriatic Sea,Adriatic Sea,42,17.5,5,1
509,509001,1866,8,5,Franco-Prussian border,"Strasbourg, France",48.58333,7.75,4,1
510,510001,1920,4,2,Vladivostok,"Vladivostok, Russia",43.13334,131.9,1,1
511,511001,1899,2,24,"Savman Bay, Chekiang Province","Chekiang Province, China",29,120,3,1
523,523001,1941,8,19,Iran,Tehran,35.67194,51.42445,5,1
601,601001,1972,1,20,Peruvian coastal waters,Lima,-12.05,-77.5,4,1
602,602001,1972,11,12,Pacific Ocean off Equador,Manta,-0.95,-80.73333,4,1
603,603001,1946,8,2,.,tehran,35.91,50.77,5,1
604,604001,1949,7,-9,Aden protectorate,Aden directorate,12.8,45.03333,3,1
605,605001,1956,7,30,"Wa State, Burma","kengtang, MY",21.49972,99.65305,3,1
606,606001,1956,10,20,Hungary,Budapest,47.5,19.08333,5,1
607,607001,1957,4,13,.,SYR-JOR border,32.38,37.33,4,1
608,608001,1958,11,7,.,berlin,52.52,13.38,1,1
610,610001,1962,10,22,Yemen/Saudi Arabia border,"Najran, Saudi Arabia",17.50556,44.18417,4,1
611,611001,1964,2,23,.,md point of VIE coast,12.84,109.37,4,1
612,612001,1921,2,27,"Batum, Georgia","Batum, Georgia",41.64889,41.64833,1,1
613,613001,1940,11,23,Thai Indochina boader,"Khemmarat, Thailand",16.05,105.2167,4,1
614,614001,1944,2,23,Turkey,Ankara,39.935,32.86417,5,1
616,616001,1935,11,1,China,"Beijing,",39.92889,116.3883,5,1
617,617001,1942,2,4,"Cairo,Egypt",Cairo,30.05,31.25,1,1
619,619001,1975,11,15,High Seas-North Sea near Iceland,Rockall Rise,59,-14,5,1
623,623001,1965,7,-9,Sikkim,"Sikkim, India",27.75,88.5,3,1
624,624001,1963,4,-9,French Guyana,Cayenne,4.933333,-52.33333,5,1
632,632001,1917,4,4,Cuba,Havana,23.13194,-82.36417,5,1
633,633001,1949,10,1,.,taiwan straits,24.61,119.9,5,1
634,634001,1949,10,1,Beijing,Beijing,39.92889,116.3883,1,1
1002,1002001,1963,4,26,.,md point of dom coast,18.67,-68.26,4,1
1006,1006001,1950,4,20,Jerusalem,"Jerusalem, Israel",31.75,35,1,1
1008,1008001,1955,10,17,.,ISR-JOR border,31.15,35.687,4,1
1013,1013001,1957,1,12,Gulf of Aqaba,"Gulf of Aqaba, Saudia Arabia",29,34.66667,3,1
1017,1017001,1965,10,28,Lebanon,Beirut,33.87194,35.50972,5,1
1018,1018001,1962,6,14,Jerusalem,"Jerusalem, Israel",31.75,35,1,1
1019,1019001,1963,8,25,Jerusalem,"Jerusalem, Israel",31.75,35,1,1
1020,1020001,1964,1,24,"Border area, Jerusalem","Jerusalem, Israel",31.75,35,2,1
1021,1021001,1960,4,15,West Irian,"Irian Jaya, Indonesia",-5,138,3,1
1022,1022001,1961,12,18,North New Guenoa,"Wewak, PNG",-3.55,143.6333,3,1
1023,1023001,1951,8,16,West Irian,"Irian Jaya, Indonesia",5,138,3,1
1024,1024001,1957,11,7,West Irian,"Irian Jaya, Indonesia",-5,138,3,1
1025,1025001,1927,8,-9,Chaco Boreal,"Chaco Boreal, Paraguay",-23,-60,3,1
1026,1026001,1928,8,22,Chaco Boreal,"Chaco Boreal, Paraguay",-23,-60,3,1
1027,1027001,1931,6,15,Chaco Boreal,"Chaco Boreal, Paraguay",-23,-60,3,1
1028,1028001,1936,10,3,Chaco Boreal,"Chaco Boreal, Paraguay",-23,-60,3,1
1029,1029001,1938,6,-9,Chaco Boreal,"Chaco Boreal, Paraguay",-23,-60,3,1
1035,1035001,1966,12,16,.,ISR-SYR border,32.945,35.84,4,1
1039,1039001,1970,6,11,.,SYR-JOR border,32.38,37.33,4,1
1042,1042001,1948,6,-9,Area of Hebron and Jerusalem,"Jerusalem, Israel",31.75,35,2,1
1043,1043001,1973,2,21,Sinai peninsula,"Sinai, Egypt",29.5,34,3,1
1046,1046001,1971,10,18,.,ISR-SYR border,32.945,35.84,4,1
1051,1051001,1968,5,12,Israel/Lebanon border,"Me'ona, Israel",33.01667,35.26667,4,1
1058,1058001,1943,9,-9,Thailand,Bangkok,13.75,100.5167,5,1
1061,1061001,1974,4,12,.,ISR-LEB border,32.93,35.519,4,1
1062,1062001,1953,8,28,Trieste,"Trieste, Italy",45.64861,13.78,1,1
1063,1063001,1908,8,-9,"Curacao, Venezuelan coast",Curacao,10.38083,-71.29861,1,1
1066,1066001,1941,12,17,Indian Ocean,Indian Ocean,-10,70,5,1
1067,1067001,1967,7,15,"Border area, Jerusalem","Jerusalem, Israel",31.75,35,2,1
1068,1068001,1970,8,15,Israel,"Jerusalem, Israel",31.75,35,5,1
1069,1069001,1968,7,23,Algiers,"Algiers, Algeria",36.76305,3.050555,1,1
1070,1070001,1963,2,11,.,mid pt borneo border,1.45,114.47,4,1
1072,1072001,1968,4,4,Sabah,"Sabah, Iraq",35.3125,43.36833,1,1
1073,1073001,1954,8,7,Goa,"Goa, India",15.58333,74,1,1
1074,1074001,1961,8,17,Goa,"Goa, India",15.58333,74,1,1
1077,1077001,1947,9,22,Junagadh,"Junagadh, India",21.51667,70.46667,1,1
1079,1079001,1951,3,13,Kashmir,Kashmir,34.56667,74.75,3,1
1081,1081001,1971,7,20,Jordan-Syria border,"Imtan, Syria",32.4,36.81667,4,1
1082,1082001,1937,7,-9,Chaco Boreal,"Chaco Boreal, Paraguay",-23,-60,3,1
1083,1083001,1962,7,2,Zegdou and Tindouf,"Tindouf, Algeria",27.67417,-8.147778,1,1
1084,1084001,1963,9,30,Algerian-Moroccan border,"Figuig, Morocco",32.11666,-1.226944,4,1
1086,1086001,1909,5,9,Northern Moroco,Tangier Bay,35.78917,-5.793889,3,1
1087,1087001,1911,5,23,Northern Morocco,Tangier,35.78472,-5.812778,3,1
1091,1091001,1958,2,1,"Lake Nuba, Wali Halfa","Nuba, Sudan",15.06667,30.45,3,1
1093,1093001,1900,5,-9,Sena Ultima Esperanza,"Esperanza, Arg",-26.01667,-54.65,1,1
1094,1094001,1907,11,-9,Martin Garcia Island,"Isla de Martin Garcia, Argentina",-34.1875,-58.28111,3,1
1095,1095001,1912,1,-9,Rio Paraguay,"Asuncion, Paraguay",-25.26667,-57.66667,4,1
1097,1097001,1952,7,-9,Alto Palena,"Alto Palena, Chile",-43.61666,-71.8,1,1
1098,1098001,1955,8,4,Alto Palena,"Alto Palena, Chile",-43.61666,-71.8,1,1
1099,1099001,1958,4,-9,Beagle Channel,"Beagle Channel, Argentina",-54.88334,-68.16666,4,1
1100,1100001,1959,8,16,Beagle Channel,"Beagle Channel, Argentina",-54.88334,-68.16666,4,1
1101,1101001,1960,3,24,Alto Palena,"Alto Palena, Chile",-43.61666,-71.8,1,1
1102,1102001,1963,9,17,Beagle Channel 1,"Beagle Channel, Argentina",-54.88334,-68.16666,4,1
1104,1104001,1972,5,6,Oman/South Yemen border,"Habarut, Yemen",17.3,52.73333,4,1
1105,1105001,1973,11,18,Oman/South Yemen border,"Habarut, Yemen",17.3,52.73333,4,1
1106,1106001,1975,11,-9,South Yemen/Oman border area,"Habarut, Yemen",17.3,52.73333,4,1
1107,1107001,1971,10,25,Yemen/South Yemen Border,"San'a', Yemen",15.5,44.25,4,1
1108,1108001,1962,10,1,.,YEM-SAU border,17.23,47.46,4,1
1109,1109001,1966,5,1,.,YEM-SAU border,17.23,47.46,4,1
1110,1110001,1969,11,26,near al Wadeish,saudi-yemen border,16.8125,47.49667,2,1
1112,1112001,1949,9,25,Dominican-Haitian border,"Banica, DR",19.08333,-71.7,4,1
1115,1115001,1967,5,8,Venezuelan Coast,Bonaire Basin,11.41667,-67.5,4,1
1117,1117001,1957,11,23,Spanish Sahara,"Tan Tan, Morocco",28.43361,-11.10556,5,1
1118,1118001,1972,1,1,Off Moroccan coast,Rabat,34.05,-6.766667,4,1
1119,1119001,1973,1,1,Coast of Morocco,Tangiers,35.78472,-5.812778,4,1
1120,1120001,1901,2,-9,Rio Massacre,"Rio de Massacre, Chile",-53.56667,-72.31667,4,1
1123,1123001,1962,7,9,Iraq-Turkey border,"Cukurca, Turkey",41.06667,32.68333,4,1
1124,1124001,1958,12,29,.,GUA-MEX border,16.23,-90.27,4,1
1127,1127001,1931,1,-9,Saudi Yemen border,"Najran, Saudi Arabia",17.50556,44.18417,4,1
1128,1128001,1931,12,30,Najran-S.Arabia Yemen border,"Najran, Saudi Arabia",17.50556,44.18417,1,1
1129,1129001,1933,11,15,.,YEM-SAU border,17.23,47.46,4,1
1130,1130001,1921,10,1,Gilan province Iran,Gilan Region,37,49.83333,3,1
1131,1131001,1914,11,15,Northwest Iran,Tabriz,38.08,46.29194,3,1
1132,1132001,1918,11,3,Iran,Tehran,35.67194,51.42445,5,1
1133,1133001,1920,5,8,.,md pt USR-IRN border,37.36,54.45,5,1
1134,1134001,1974,8,13,"Kordestan, Qasr-e-sharin, Qala Diza","Kordestan, Iran",37,44,3,1
1135,1135001,1971,11,30,Persian Gulf,Persian Gulf,27,51,5,1
1136,1136001,1969,4,6,Shatt-al-Arab,Shatt-al-Arab (Iran/Iraq),29.94972,48.57306,3,1
1138,1138001,1959,9,22,Shatt-al-Arab,Shatt-al-Arab (Iran/Iraq),29.94972,48.57306,3,1
1139,1139001,1932,9,1,Leticia,"Leticia, Colombia",10.36667,-74.46667,1,1
1141,1141001,1934,2,-9,Ramon Castilla,"Ramon Castilla, Peru",-4.256945,-69.95944,1,1
1142,1142001,1917,12,5,"Harbin, China","Harbin, China",45.75,126.65,1,1
1143,1143001,1919,12,15,Manchuria,"Harbin, China",45.75,126.65,3,1
1145,1145001,1901,12,-9,Oriente,"Oriente, Peru",-3.373055,-72.03917,1,1
1147,1147001,1910,2,-9,Oriente,"Oriente, Ecuador",-2,-77,3,1
1148,1148001,1912,4,22,Oriente,"Oriente, Ecuador",-2,-77,1,1
1149,1149001,1914,11,-9,Oriente,"Oriente, Ecuador",-2,-77,1,1
1150,1150001,1917,2,-9,Oriente,"Oriente, Ecuador",-2,-77,1,1
1151,1151001,1932,10,8,Zarumilla river,"Zaruma, Ecuador",-3.683333,-79.61667,4,1
1152,1152001,1934,12,-9,Oriente and Zarumilla River,"Zaruma, Ecuador",-3.683333,-79.61667,4,1
1153,1153001,1938,5,-9,"Oriente, Zarumilla River","Zaruma, Ecuador",10.58333,6.8,3,1
1154,1154001,1939,6,1,Zarumilla River and Oriente,"Zaruma, Ecuador",10.58333,6.8,3,1
1155,1155001,1951,8,11,Zamora-Santiago zone,cordillera del condor (EC-PER),-3.51,-78.3175,3,1
1156,1156001,1954,1,24,Rio Putumayo,"r. Putumayo, Colombia",0.7233334,-75.81,4,1
1157,1157001,1955,8,-9,Zamora-Santiago zone,cordillera del condor (EC-PER),-3.51,-78.3175,3,1
1158,1158001,1971,1,11,Pacific Ocean off Ecuador,"Salinas, Ecuador",-3.066667,-80.26667,4,1
1160,1160001,1907,10,-9,Putumayo River basin,"Tumaco, Col",1.795278,-78.78917,4,1
1161,1161001,1911,1,18,"Cagueta, Yapura region","Yapura, Peru",-4.516667,-71.73333,3,1
1162,1162001,1913,4,-9,"Puerto Pizarro, Rio Caqueta","Rio Caqueta, Brazil",-3.133333,-64.76667,4,1
1163,1163001,1902,10,21,Yurua and Purus River regions,"Purus River, Brazil",-3.7,-61.46667,4,1
1164,1164001,1918,8,-9,"Encanto, Peru","Encanto, Peru",-13.81667,-74,1,1
1166,1166001,1966,10,14,Ankoko Island,"Ankoko Island, Venezuela",6.716667,-61.13334,3,1
1168,1168001,1922,2,-9,Honduran-Nicaraguan border,"Jalapa, Nicaragua",13.91667,-86.13333,4,1
1169,1169001,1927,10,-9,Honduran-Guatemalan border,"San Pedro, Honduras",15.1,-86.11667,4,1
1170,1170001,1929,3,-9,.,NIC-HON border,14.01,-85.372,4,1
1171,1171001,1935,8,28,Guatemalan-Salvadoran border,"Ahuachapan, El Sal",13.91667,-89.85,4,1
1172,1172001,1969,1,28,Timoteo Dominguez Key,"Timoteo Dominguez Key, Uruguay",-34.17611,-58.22306,1,1
1173,1173001,1957,4,19,Nicaragua-Honduran border,"Jalapa, Nicaragua",13.91667,-86.13333,4,1
1174,1174001,1900,9,17,Colombian Venezuelan border,"Culebra, Col",11.15,-74.11667,4,1
1175,1175001,1917,2,19,Motagua River area,Rio Motagua,15.73333,-88.23333,4,1
1176,1176001,1920,3,-9,Salvadoran-Honduran border,"La Esperanza, Honduras",14.78333,-88.16666,4,1
1177,1177001,1919,3,-9,"Nikolaevek, North Sakhalin Island","Sakhalin, Russia",73.51667,80.46667,3,1
1178,1178001,1902,6,19,Acre,"Acre, Brazil",-9,-70,3,1
1179,1179001,1906,1,-9,Rio Pilcomayo,"Rio Pilcomayo, Bolivia",-19.38333,-65.88333,4,1
1180,1180001,1910,11,19,Manuripi region,"Manuripi, Bolivia",-11.33333,-67.5,3,1
1181,1181001,1911,5,-9,Tacna Arica border,"Tacna, Peru",-17.83333,-70.5,1,1
1182,1182001,1918,11,-9,Chaco Boreal,"Asuncion, Paraguay",-25.26667,-57.66667,3,1
1183,1183001,1922,9,-9,Chaco Boreal,"Chaco Boreal, Paraguay",-23,-60,3,1
1184,1184001,1920,7,15,.,md pt on CHL-BOL border,-20.66,-68.35,4,1
1187,1187001,1962,3,22,Lauca River,"Lauca River, Chile",-19.16667,-68.16666,4,1
1189,1189001,1975,11,-9,Brazil-Guyana border,"Raad, Guyana",2.616667,-59.9,4,1
1190,1190001,1976,7,13,Honduran-Salvadoran border,"Sensuntepeque, El Salvador",13.86667,-88.63333,4,1
1191,1191001,1976,9,11,Chile Peru border,"Tacna, Peru",-18.00556,-70.24834,4,1
1193,1193001,1954,4,-9,.,md pt of NIC-COS border,11.007,-84.56,4,1
1195,1195001,1918,7,2,Nicaraguan-Honduran border,"Danli, Honduras",14.03333,-86.58334,4,1
1196,1196001,1913,12,24,San Andry Providencia Islands,"Isla de Providencia, Col",13.35,-81.36667,3,1
1197,1197001,1943,9,1,Mongolia/Sinking border,Ulaanbaatar,47.91667,106.9167,5,1
1200,1200001,1973,2,10,Islamabad,"Islamabad, Pakistan",33.7,73.16666,1,1
1202,1202001,1907,1,5,.,NIC-HON border,14.01,-85.372,4,1
1204,1204001,1907,6,11,.,off coast of HON,13.17,-87.53,3,1
1205,1205001,1906,3,-9,.,gua-sal border,14.173,-89.519,4,1
1206,1206001,1969,6,24,Salvadoran-Honduras border,"La Virtud, Honduras",14.05,-88.7,4,1
1207,1207001,1912,4,2,Haitian-Dominican border,"Banica, DR",19.08333,-71.7,4,1
1208,1208001,1959,12,26,Apipe Grande Island in Parani River,"Apipe Island, Argentina",-27.5,-56.9,3,1
1209,1209001,1962,5,15,Pilcomayo river,"Pilcomayo, Bolivia",-19.38333,-65.88333,4,1
1211,1211001,1935,8,21,Chaco Boreal,"Chaco Boreal, Paraguay",-23,-60,3,1
1213,1213001,1964,3,19,.,VIE-CAM,11.96,106.7,4,1
1214,1214001,1956,2,-9,"Islands near Camb, S Vietnam border","Kampot, Cambodia",12.11667,104.9667,4,1
1215,1215001,1958,5,30,Parrots Beak,"Parrots Beak, cambodia",10.92583,106.1011,3,1
1216,1216001,1965,12,26,.,VIE-CAM,11.96,106.7,4,1
1217,1217001,1967,2,5,.,VIE-CAM,11.96,106.7,4,1
1219,1219001,1919,1,1,USSR-Polish border,"Brest, Byelorussia",52.1,23.7,4,1
1225,1225001,1953,11,-9,Preah Vihear,"Preah Vihear, Cambodia",14.4,104.6833,1,1
1226,1226001,1958,8,5,Preah Vihear,"Preah Vihear, Cambodia",14.4,104.6833,1,1
1227,1227001,1961,6,18,Preah Vihear,"Preah Vihear, Cambodia",14.4,104.6833,1,1
1228,1228001,1962,6,15,Preah Vihear,"Preah Vihear, Cambodia",14.4,104.6833,1,1
1229,1229001,1964,4,14,Preah Vihear,"Preah Vihear, Cambodia",14.4,104.6833,1,1
1230,1230001,1967,6,22,Preah Vihear,"Preah Vihear, Cambodia",14.4,104.6833,1,1
1231,1231001,1975,5,29,"Border, Gulf of Thailand",Gulf of Thailand,10,102,3,1
1232,1232001,1976,8,2,.,CAM-THI,14.18,103.12,4,1
1233,1233001,1921,8,28,Burgenland,"Burgenland, Austria",47.5,16.41667,1,1
1235,1235001,1921,8,6,Northern Albania,Shkoder,42.0675,19.51306,3,1
1238,1238001,1947,9,26,Kashmir,Kashmir,34.56667,74.75,3,1
1240,1240001,1923,6,18,Yugoslavia/Bulgaria border,"Trn, Bulgaria",42.83528,22.65167,4,1
1241,1241001,1925,10,21,Greece/Bulgaria border,"Zlatograd, Bulgaria",41.38334,25.1,4,1
1243,1243001,1938,3,10,Poland/Lithuania border,"Kaliningrad, Russia",54.71,20.5,4,1
1244,1244001,1938,4,24,Teschen region,"Teschen, Poland",49.76667,18.6,1,1
1245,1245001,1938,9,24,Border,HUN-YUG border,45.71,18.42778,4,1
1246,1246001,1938,10,13,Slovakia,Bratislava,48.15,17.11667,5,1
1247,1247001,1939,3,15,Carpatho-Ukraine,"Lvov, Ukraine",49.83333,24,3,1
1249,1249001,1909,8,-9,Karapathois Island Crete,"Karpathos, Greece",35.5,27.23333,3,1
1250,1250001,1912,9,3,.,tur-bul border,41.47,26.9,4,1
1251,1251001,1913,4,18,.,yug-bul border,43.47,22.66,4,1
1255,1255001,1915,6,12,Border,yug-alb border,42.02472,20.61611,4,1
1257,1257001,1918,1,2,Bessarabia,"Bessarabia, Moldova",47,28.5,1,1
1262,1262001,1918,9,15,.,albania,41.15,20.25,5,1
1263,1263001,1918,11,-9,border,rom-yug border,44.6675,21.92389,4,1
1265,1265001,1919,3,20,.,hungary,47.19,19.51,5,1
1268,1268001,1919,1,23,Teschen,"Teschen, Poland",49.76667,18.6,1,1
1269,1269001,1919,3,15,.,latvia,56.99,25.08,5,1
1270,1270001,1919,5,4,Western Turkey,Gallipoli,40.4,26.66667,3,1
1272,1272001,1920,7,15,.,lit-pol border,54.33,25.8,4,1
1273,1273001,1921,3,15,Upper Silesia,"Upper Silesia, Poland",50.16667,18.83333,3,1
1274,1274001,1908,10,5,Bulgaria,Sofia,42.68333,23.31667,5,1
1278,1278001,1958,1,-9,Aegean See,Aegean See,39,25,5,1
1279,1279001,1963,12,25,Cyprus,Nicosia,35.16667,33.36666,5,1
1280,1280001,1967,11,16,.,cyprus,35.06,33.41,5,1
1284,1284001,1948,8,1,Greece-Albania border,"Leskovik, Albania",40.14917,20.5975,4,1
1285,1285001,1949,8,8,Southern Albania,Gjirokaster,40.07278,20.13694,3,1
1286,1286001,1949,8,13,.,yug-rom border,44.96,21.74,4,1
1289,1289001,1976,6,3,Aegean Sea,Aegean Sea,39,25,5,1
1290,1290001,1975,1,8,Cyprus,Nicosia,35.16667,33.36666,5,1
1292,1292001,1974,3,29,Aegean Sea,Aegean Sea,39,25,5,1
1293,1293001,1974,7,15,.,cyprus,35.06,33.41,5,1
1295,1295001,1952,7,26,"Greek Islands, Alpha and Gamma","Athens, Greece",37.98333,23.73333,3,1
1300,1300001,1955,5,7,"Nekowal,Kashmir",Kashmir,34.8,72.15,3,1
1301,1301001,1956,2,17,"Rann of Kutch, Chhad Bet Island","Rann of Kachchh, India",24.04583,69.57972,3,1
1302,1302001,1958,3,11,Assam,"Assam, India",26,93,3,1
1303,1303001,1960,9,23,Northwest Frontier Province,Northwest Frontier Province,34.5,72,3,1
1304,1304001,1961,5,19,Northwest Frontier Province,Northwest Frontier Province,34.5,72,3,1
1305,1305001,1955,3,29,Northwest Frontier Province,Northwest Frontier Province,34.5,72,3,1
1306,1306001,1950,6,17,Northwest Frontier Province,"Northwest Frontier Province, Pakistan",34.5,72,3,1
1307,1307001,1949,3,-9,Northwest Frontier Province,"Northwest Frontier Province, Pakistan",34.5,72,3,1
1308,1308001,1950,2,23,Kashmir,Kashmir,34.56667,74.75,3,1
1309,1309001,1961,6,8,Kashmir,Kashmir,25.7,58.88334,3,1
1310,1310001,1962,9,18,"Tripura, assam","Tripura, India",24,92,3,1
1312,1312001,1965,3,5,Jammu and Kashmir,"Jammu, Pakistan",30.11667,73.85,3,1
1315,1315001,1965,9,23,Kashmir,"Kashmir, pakistan",31.34222,74.36528,3,1
1316,1316001,1964,8,-9,Tripura,"Tripura, India",24,92,3,1
1317,1317001,1963,7,-9,"Dumabari, Lachar-Sylhet(Tripura)","Tripura, India",24,92,3,1
1319,1319001,1965,2,15,Zairean Uganda border,"Gety, DRC",1.216667,30.2,4,1
1321,1321001,1960,7,5,Congo-Zaire border,"Kinshasa, DRC",-4.329722,15.315,4,1
1322,1322001,1966,8,8,"Quaddai District, Chad-Sudan border","Tundubai, Sudan",14.8,22.76667,3,1
1323,1323001,1969,1,1,CAR-Chadian border,"Gondey, Chad",9.15,19.31667,4,1
1325,1325001,1969,7,10,Zaire/Congo border,"Kinshasa, DRC",-4.329722,15.315,4,1
1326,1326001,1969,6,9,Cabinda (Angola),Cabinda,-5,12.5,1,1
1328,1328001,1965,1,-9,congo-zaire border,mid pt on border,-2.058056,16.33945,4,1
1329,1329001,1963,8,15,congo-zaire border,mid pt on border,-2.058056,16.33945,4,1
1331,1331001,1975,10,27,.,mor-alg border by med sea,35.04,-1.99,4,1
1332,1332001,1967,11,1,Angolan-Katangese border,"Luau, Angola",-10.7,22.23333,4,1
1333,1333001,1976,8,6,botswana-zimbabwe border,"Maitengwe, Botswana",-20,27.16667,4,1
1334,1334001,1975,10,11,Botswana,Gaborone,-24.64639,25.91195,5,1
1335,1335001,1969,3,-9,Botswana-Rhodesia border,"Maitengwe, Botswana",-20,27.16667,4,1
1337,1337001,1976,9,9,Aouzou Strip,"Aozou, Chad",21.81667,17.41667,3,1
1339,1339001,1976,11,16,gab-cam Border,md pt on border,2.168889,11.9725,4,1
1340,1340001,1972,6,-9,Mbanie and Locotiers islands,"owendo, gabon",0.3213889,9.537222,3,1
1342,1342001,1973,5,4,Mozambican-Malawian border,"Milange, Mozambique",-16.09861,35.77,4,1
1343,1343001,1967,10,9,Kashmir,"Kashmir, pakistan",31.34222,74.36528,3,1
1344,1344001,1953,2,3,Waters between Japan and S Korea,"Tsushima, Japan",34,129.5,4,1
1345,1345001,1954,7,30,Takeshima Islands,"Takeshima, Japan",35.3,136.1833,3,1
1346,1346001,1955,8,3,waters between s.Korea Japan,"Tsushima, Japan",34,129.5,4,1
1347,1347001,1958,1,1,Waters between Japan and S Korea,"Tsushima, Japan",34,129.5,4,1
1349,1349001,1961,1,13,Sea of Japan,Sea of Japan,43.5,135.75,5,1
1350,1350001,1958,12,5,Laos,"Viangchan, Laos",17.96667,102.6,5,1
1351,1351001,1966,3,16,.,mid pt on IVO-GUI border,8.684,-7.532,4,1
1352,1352001,1967,2,17,Ivorian-Guinean coastal waters,"Sassandra, Ivory Coast",7.7,-7.066667,4,1
1353,1353001,1962,1,6,.,mid pt on LAO-VIE border,18.49,105.26,4,1
1360,1360001,1969,3,28,Eastern Cambodia,"Chbar, Cambodia",12.76667,107.1667,3,1
1361,1361001,1964,1,22,burundi-rwanda border,mid pt on border,-2.575556,29.96917,4,1
1362,1362001,1973,3,15,.,meeting pt of RWA-BUI-TAZ border,-2.468,30.667,2,1
1363,1363001,1960,12,16,.,LAO northern border,21.289,101.846,4,1
1364,1364001,1972,4,14,Tanzanian-Mozambican border,"Chamba, Tanzania",-11.58333,36.96667,4,1
1366,1366001,1965,5,15,Kenyan-Ugandan border,"Moroto, Uganda",2.533333,34.65,4,1
1367,1367001,1973,2,13,Ugandan-Kenyan border,"Kongelai, Kenya",1.466667,35.01667,4,1
1368,1368001,1976,2,18,Ugandan-Kenyan border,"Moroto, Uganda",2.533333,34.65,4,1
1369,1369001,1959,8,29,Burma near border,Rangoon,16.78333,96.16666,4,1
1374,1374001,1950,1,-9,Shan State of Kengtung,Kentung,21.28333,99.6,3,1
1376,1376001,1975,7,7,Thai/Laos boader,Viangchan,17.96667,102.6,4,1
1377,1377001,1976,7,5,"Entebbe airport, Uganda","Entebbe Airport, Uganda",0.0575,32.46722,1,1
1378,1378001,1967,3,1,.,meeting pt of KEN-ETH-SOM,3.841,41.971,2,1
1379,1379001,1964,8,9,.,PRK-KOR border,38.27,127.3,4,1
1380,1380001,1971,1,27,Kagera Salient,"Kagera River, Tanzania",-0.95,31.78333,4,1
1381,1381001,1972,9,18,.,md pt TAZ-UGA border,-1.121,32.144,4,1
1382,1382001,1974,7,14,.,md pt TAZ-UGA border,-1.121,32.144,4,1
1384,1384001,1974,7,10,Senegalese-Gambian border,"Banjul, Gambia",13.45306,-16.5775,4,1
1385,1385001,1969,11,25,.,md pt of guinea-bissau-sen border,12.654,-14.933,4,1
1386,1386001,1973,1,20,Guinea-Port Guinea border,"Cacine, Guinea-Bissau",11.11667,-15.01667,4,1
1387,1387001,1961,12,-9,Guinean-Senegalese border,"Wassadou, Senegal",13.23333,-13.81667,4,1
1388,1388001,1963,4,8,Senegal-Port.Guinea,"Dalaba, Senegal",13.33333,-11.78333,4,1
1389,1389001,1972,5,26,Senegal-Port.Guinea border,"Koukany, Senegal",12.93333,-14.08333,4,1
1390,1390001,1972,12,24,Zambian-Mozambican border,"Nyanje, Zambia",-14.4,31.8,4,1
1391,1391001,1971,3,3,Zambian-Mozambican border,"Nyanje, Zambia",-14.4,31.8,4,1
1392,1392001,1966,5,18,Zambia/Angola border,"Mussuma, Angola",-14.2,21.91667,4,1
1396,1396001,1974,10,1,.,zim-zam border,-17.006,27.794,4,1
1397,1397001,1973,1,9,.,zim-zam border,-17.006,27.794,4,1
1398,1398001,1971,10,4,Caprivi strip,"Caprivi Strip, Namibia",-18,23,3,1
1399,1399001,1969,3,23,Caprivi Strip,"Caprivi Strip, Namibia",-18,23,3,1
1400,1400001,1968,4,6,Zambia,Lusaka,-15.41667,28.28333,5,1
1401,1401001,1966,10,14,Caprivi Strip,"Caprivi Strip, Namibia",-18,23,3,1
1403,1403001,1968,5,14,Sudan/Uganda border,"Nimule, Sudan",3.6,32.05,4,1
1404,1404001,1971,12,15,Sudan/Uganda border,"Nimule, Uganda",3.6,32.05,4,1
1406,1406001,1969,3,1,Santa Isabel and Bata,"bata, eq guinea",2.025278,9.825,1,1
1407,1407001,1963,12,2,Beninois-Nigerian border,mid pt on border,9.0475,2.889444,4,1
1408,1408001,1966,10,29,Ghana and Guinea,"Accra, Ghana",5.55,-0.2166667,5,1
1409,1409001,1966,3,10,from guinea to Ghana,"Yamoussoukro, Ivory Coast",6.816667,-5.283333,4,1
1410,1410001,1962,7,23,Mauritanian-Malian border,"Nioro, Mali",15.23333,-9.583333,4,1
1411,1411001,1974,11,-9,Malian-Burkinabe border,"Kiri, Mali",13.53333,-4.1,3,1
1415,1415001,1975,4,7,"Luanda, Angola","Luanda, Angola",-8.838333,13.23444,1,1
1417,1417001,1961,11,-9,Togolese-Ghanan border,"Lome, Togo",6.131945,1.222778,4,1
1418,1418001,1962,12,7,togo-ghana Border,"Jasikan, Ghana",7.4,0.4666667,4,1
1419,1419001,1965,1,16,Togolese Ghanian border,"Jasikan, Ghana",7.4,0.4666667,4,1
1421,1421001,1961,1,20,Ogaden,"Ogaden, Ethiopia",8,44,2,1
1422,1422001,1967,7,2,Ethiopean-Sudanese frontier,"Famaka, Sudan",11.3,34.73333,4,1
1423,1423001,1960,8,14,"Aiscia, Ogaden","Ogaden, Ethiopia",8,44,5,1
1425,1425001,1963,11,16,Ogaden,"Ogaden, Ethiopia",8,44,2,1
1426,1426001,1963,12,29,Northwest Frontier Province,"NWFP, Pakistan",34.5,72,3,1
1427,1427001,1974,5,26,Ogaden,"Ogaden, Ethiopia",8,44,2,1
1428,1428001,1975,12,14,Ogaden,"Ogaden, Ethiopia",8,44,2,1
1430,1430001,1975,10,9,.,moz-zim border,-19.18,32.93,4,1
1435,1435001,1975,4,18,Cambodia,Phnom Penh,11.55,104.85,5,1
1446,1446001,1974,2,3,Northwest Frontier Province,"NWFP, Pakistan",34.5,72,3,1
1447,1447001,1971,4,7,"Bangladesh, Kashmir",Dhaka,23.72305,9.408611,5,1
1448,1448001,1954,5,2,.,taiwan straits,24.61,119.9,5,1
1449,1449001,1969,6,16,nepal-india border,mid pt of border,27.37056,84.46972,4,1
1450,1450001,1975,8,-9,East TImor,"Baukau, Timor",-8.471111,126.4583,3,1
1462,1462001,1968,10,26,Susta region,"Susta, Latvia",56.46667,21.33333,3,1
1463,1463001,1965,12,1,nepal-india border,mid pt of border,27.37056,84.46972,4,1
1466,1466001,1962,4,-9,.,IND-NEP border,27.51,84.29,4,1
1467,1467001,1964,3,4,Kashmir,Kashmir,31.34222,74.36528,3,1
1469,1469001,1976,4,19,bang-india border,mid pt of border,25.11722,90.5825,4,1
1472,1472001,1975,2,15,.,PRK-KOR border,38.27,127.3,4,1
1477,1477001,1918,2,24,Aland Islands,"Aland, Finland",60.25,20,3,1
1480,1480001,1967,6,26,.,ISR-EGY border,30.363,34.706,4,1
1481,1481001,1974,11,24,North Sea off Iceland,"Hvalnes, Iceland",64.4,-14.55,4,1
1482,1482001,1865,2,-9,.,chile,-38.15,-72.04,5,1
1486,1486001,1884,12,4,"Seoul, Korea",Seoul,37.56639,126.9997,1,1
1488,1488001,1885,10,-9,.,korea,38.68,127.45,5,1
1489,1489001,1874,4,17,Formosa,"Formosa, Brazil",-23.78333,-45.35,1,1
1490,1490001,1894,6,5,.,peru,-16.7,-70.25,5,1
1493,1493001,1849,5,-9,Venezuelan Coast,Caracas,9.083333,-69.83334,4,1
1494,1494001,1854,12,12,"Aves Island, Venezuela",Aves Island,15.7,-63.63334,3,1
1495,1495001,1856,3,-9,"Aves Island, Venezuela",Aves Island,15.7,-63.63334,3,1
1496,1496001,1857,8,20,Mejillones,"Mejillones, Chile",-23.1,-70.45,1,1
1497,1497001,1869,2,-9,Venezuelan Coast,Caracas,10.5,-66.91666,4,1
1500,1500001,1857,8,20,.,chile-bol border,-26.78,-69.44,4,1
1501,1501001,1861,5,-9,Coblja,"Cobija, Bolivia",-11.03333,-68.73333,1,1
1502,1502001,1863,2,-9,"Mejillones, Chile",Mejillones,-23.1,-70.45,1,1
1503,1503001,1872,8,-9,"Antofagasta, Chile",Antofagasta,-23.65,-70.4,1,1
1507,1507001,1843,9,21,Magellan Straits,"Magellan, Chile",-54,-71,4,1
1508,1508001,1873,3,15,Santa Cruz,"Santa Cruz, Argentina",-49,-70,1,1
1509,1509001,1877,9,-9,"Santa Cruz, Argentina","Santa Cruz, Argentina",-49,-70,1,1
1510,1510001,1878,10,15,Santa Cruz River,"Santa Cruz, Argentina",-49,-70,3,1
1511,1511001,1879,5,-9,"North of Rio Gallegos, Argentina",Rio Gallegos,-51.6,-68.98333,2,1
1512,1512001,1891,12,-9,Valaparaiso Chile,Valparaiso,-33.04778,-71.60111,1,1
1513,1513001,1897,10,-9,"Puna de Atacama, Argentina",Puna de Atacama,-25,-67,1,1
1515,1515001,1884,3,1,Chile Peru border,mid pt of border,-18.28722,-69.83472,4,1
1516,1516001,1884,3,-9,Peru Bolivian border,"La Paz, Bolivia",-16.5,-68.15,4,1
1518,1518001,1878,11,8,.,chile-bol border,-26.78,-69.44,4,1
1519,1519001,1863,8,-9,colombia-ecuador Border Area,mid pt of border,0.3688889,-77.22056,4,1
1520,1520001,1862,6,19,"Ibarra, Ecuador",Ibarra,-0.3,-78.55,1,1
1521,1521001,1857,11,-9,"Near Aguarico, Colombia","border w Aguarico, ECU",0.25,-76.26972,2,1
1522,1522001,1856,6,25,Panama,Panama City,8.966666,-79.53333,5,1
1523,1523001,1852,3,-9,.,col-per border,-3.94,-69.885,4,1
1524,1524001,1834,2,-9,Off Columbia,"Barranquilla, Colombia",5.15,-73.88333,4,1
1525,1525001,1868,8,20,Rio de la Plata,"Rio de la Plata, Mexico",20.55,-104.8333,4,1
1526,1526001,1873,9,29,"Paraguay, Chaco Boreal","Chaco Boreal, Paraguay",-23,-60,3,1
1527,1527001,1872,3,22,Paraguay,"Asuncion, Paraguay",-25.26667,-57.66667,5,1
1528,1528001,1851,4,-9,Uruguay,Montevideo,-34.85806,-56.17083,5,1
1529,1529001,1891,2,21,Haiti,Port-au-Prince,18.53917,-72.335,5,1
1530,1530001,1888,10,16,"Port of St.Marc, Port au Prince",Port-au-Prince,18.53917,-72.335,1,1
1531,1531001,1882,2,27,"Port-au-Prince, Haiti",Port-au-Prince,18.53917,-72.335,1,1
1532,1532001,1869,11,-9,Dominican Republic,Puerta Plata,19.8,-70.68333,5,1
1533,1533001,1876,2,-9,Guatemalan-Salvadoran border,"Ahuachapan, El Sal",13.91667,-89.85,4,1
1534,1534001,1890,6,23,Guatemalan-Salvadoran border,"Ahuachapan, El Sal",13.91667,-89.85,4,1
1535,1535001,1885,2,28,.,gua-sal border,14.173,-89.519,4,1
1540,1540001,1840,12,5,"Douro river, Portugal",Oporto,41.15,-8.616667,4,1
1541,1541001,1893,9,-9,Texas border,"Ciudad Acuna, Mexico",29.3,-100.9167,4,1
1542,1542001,1886,6,30,"Tampico, Mexico",Tampico,21.66667,-98.65,1,1
1543,1543001,1880,2,-9,Rio Grande,"Rio Grande, Bolivia",-21.73333,-65.81667,4,1
1544,1544001,1876,5,16,Texas-Mexican border,"Ciudad Acuna, Mexico",29.3,-100.9167,4,1
1545,1545001,1875,4,20,"Las Cuevas, Trinidad and Tobago",Las Cuevas,10.78333,-61.38334,1,1
1547,1547001,1873,5,6,Remolina,"Remolinos, Mexico",17.65,-94.21667,1,1
1548,1548001,1859,11,21,Rio Grande,"Rio Grande, Brazil",-20.33333,-51.28333,4,1
1549,1549001,1860,3,2,"Vera Cruz, Mexico",Veracruz,31.44722,-112.3581,1,1
1550,1550001,1855,10,-9,Texas-Mexico border,"Ciudad Acuna, Mexico",29.3,-100.9167,4,1
1551,1551001,1850,11,-9,"Yucatan, Mexico",Yucatan Peninsula,19.5,-89,3,1
1552,1552001,1843,8,23,Texas,"Austin, USA",30.28333,-97.73333,3,1
1553,1553001,1838,4,-9,Gulf of Mexico,Center of Gulf,25,-90,5,1
1554,1554001,1836,12,-9,"Veracruz, Brasos de Santiago",Veracruz,31.44722,-112.3581,1,1
1555,1555001,1836,4,4,Texas,"Austin, USA",30.28333,-97.73333,3,1
1556,1556001,1839,3,-9,Gulf of Mexico,Center of Gulf,25,-90,5,1
1557,1557001,1898,1,3,Cuba,Havana,23.13194,-82.36417,5,1
1558,1558001,1896,12,7,Cuba,Havana,23.13194,-82.36417,5,1
1559,1559001,1875,12,7,Caribbean Sea,mid pt of Caribbean Sea,14.94,-73.37805,5,1
1563,1563001,1864,4,14,.,peru,-16.7,-70.25,5,1
1564,1564001,1855,3,7,Cuba,Havana,23.13194,-82.36417,5,1
1565,1565001,1854,2,28,Cuba,Havana,23.13194,-82.36417,5,1
1566,1566001,1850,6,-9,Cuba,Havana,23.13194,-82.36417,5,1
1567,1567001,1818,3,15,Florida,center pt of FL,28.03417,-81.5375,3,1
1569,1569001,1896,12,-9,Crete,"Iraklion, Greece",37.8,22.71667,5,1
1571,1571001,1882,3,-9,Karalih,"Karalli, Turkey",40.3,33.88334,1,1
1573,1573001,1878,1,7,Thessaly,Thessalia,39.5,22,3,1
1574,1574001,1877,2,-9,Thessally,Thessalia,39.5,22,3,1
1575,1575001,1868,11,19,Crete,"Iraklion, Greece",37.8,22.71667,5,1
1576,1576001,1866,10,-9,Thessaly,Thessalia,39.5,22,3,1
1579,1579001,1829,9,24,Petra Greece,Petra,38.73333,21.65,1,1
1580,1580001,1859,10,16,Northern Morocco,Tangier,35.78472,-5.812778,3,1
1581,1581001,1893,10,2,Near Melilla in Morocco,"Melilla, Spain",35.31667,-2.95,2,1
1586,1586001,1846,1,1,"Parana River, Corrientes","Corrientes, Argentina",-27.46667,-58.83333,4,1
1587,1587001,1850,9,-9,Rio Paraguay,"Asuncion, Paraguay",-25.26667,-57.66667,4,1
1588,1588001,1855,1,-9,"Salinas, Rio Paraguay","Asuncion, Paraguay",-25.26667,-57.66667,4,1
1589,1589001,1862,4,-9,"Humaita, Rio Paraguay","Humaita, Paraguay",-27.05,-58.55,1,1
1590,1590001,1863,8,-9,.,bra-par border,-23.65,-55.17,4,1
1593,1593001,1858,5,-9,Gulf of Guayaquil,"Port of Guayaquil, Ecuador",-2.283333,-79.9,2,1
1594,1594001,1859,4,-9,"Guayaquil, Ecuador","Guayaquil, Ecuador",-2.166667,-79.9,1,1
1596,1596001,1893,9,-9,Oriente,"Oriente, Ecuador",-2,-77,1,1
1597,1597001,1899,4,-9,Amazon Basin,"Amazon Basin, Brazil",-2.5,-60,4,1
1598,1598001,1912,1,-9,"Puerto Pizarro, Rio Caqueta","Rio Caqueta, Brazil",-3.133333,-64.76667,4,1
1599,1599001,1889,9,20,.,haiti,19.11,-72.54,5,1
1600,1600001,1866,7,-9,Bolvian-Argentinian border,"Villazon, Bolivia",-22.1,-65.6,4,1
1601,1601001,1887,12,23,Rio Paraguay,"Asuncion, Paraguay",-25.26667,-57.66667,4,1
1603,1603001,1949,5,19,Syria Lebanon border,"Az Zabadani, Syria",33.71667,36.08333,4,1
1604,1604001,1960,5,3,Netherlands New Guinea,Papua New Guinea,-6,147,5,1
1605,1605001,1970,3,23,Preah Vihear,"Preah Vihear, Cambodia",14.4,104.6833,1,1
1608,1608001,1965,11,6,Alto Palena,"Alto Palena, Chile",-43.61666,-71.8,1,1
1609,1609001,1967,8,18,Beagle Channel,"Beagle Channel, Argentina",-54.88334,-68.16666,4,1
1610,1610001,1968,6,-9,Preah Vihear,"Preah Vihear, Cambodia",14.4,104.6833,1,1
1612,1612001,1972,12,21,.,md point of IRQ-KUW border,29.7,47.24,4,1
1613,1613001,1975,3,7,Iraq-Kuwait border,"Safwan, Iraq",30.1125,47.71556,4,1
1617,1617001,1970,3,13,Eastern Cambodia,"Chbar, Cambodia",12.76667,107.1667,3,1
1622,1622001,1826,10,30,Brazilian waters,"Salvador, Brazil",-12.98333,-38.51667,4,1
1623,1623001,1836,1,20,Panama,Panama City,8.966666,-79.53333,5,1
1624,1624001,1842,2,-9,Pirara region (Brazil),Pirara region,3.05,-61.15,3,1
1625,1625001,1845,6,4,Atlantic Ocean,mid pt of ocean,16.41417,-37.57639,5,1
1627,1627001,1849,8,1,Brazilian coastal forts and waters,mid pt of coastline,-8.160277,-34.98389,4,1
1628,1628001,1858,5,-9,.,venezuela cost,10.23,-64.71,4,1
1629,1629001,1859,11,29,"Buenos Aires, Argentina",Buenos Aires,-34.5875,-58.6725,1,1
1630,1630001,1859,5,-9,Patos Island,"Patos, Brazil",-20.06667,-58.03333,3,1
1632,1632001,1872,6,11,"Port-au-Prince, Haiti",Port-au-Prince,18.53917,-72.335,1,1
1633,1633001,1876,4,27,Rio Negro,"Rio Negro, Chile",-35.33333,-70.66666,4,1
1635,1635001,1877,7,13,Border,"Dobbiaco, Italy",46.73333,12.24806,4,1
1637,1637001,1881,1,-9,.,venezuela cost,10.23,-64.71,4,1
1639,1639001,1886,10,-9,Venezuela British Guana border,"Bochinche, Venezuela",7.566667,-60.73333,4,1
1642,1642001,1890,10,14,"Atbara River, Sudan/Eritrea Border","Atbara River, Eritrea",17.66667,33.96667,4,1
1643,1643001,1891,2,2,.,chile,-38.15,-72.04,5,1
1644,1644001,1895,1,10,.,md point of dom coast,18.67,-68.26,4,1
1645,1645001,1895,1,-9,Trinidad Island off Brazilian coast,"Trinidad Island, Brazil",-20.525,-29.325,3,1
1646,1646001,1895,5,11,"Amapa region, Brazil",Amapa,1,-52,3,1
1647,1647001,1896,6,-9,"Amapa Region, Brazil",Amapa,1,-52,3,1
1648,1648001,1896,12,6,"Port-au-Prince, Haiti",Port-au-Prince,18.53917,-72.335,1,1
1649,1649001,1897,10,11,"Lourenco Marques, Mozambique",Lourenco Marques,-25.96528,32.7,1,1
1650,1650001,1905,7,-9,Coast off China,Shanghai,31.22222,121.4581,4,1
1652,1652001,1912,8,15,Cuba,Havana,23.13194,-82.36417,5,1
1653,1653001,1911,1,25,MEX-US border,MID PT ON BORDER,31.21917,-105.9383,4,1
1654,1654001,1914,8,-9,North Sea,North Sea,55.33333,3,5,1
1655,1655001,1914,8,1,ger-den border,MID PT ON BORDER,54.81055,9.233889,4,1
1656,1656001,1915,2,19,"North Sea, Baltic Sea",North Sea,55.33333,3,5,1
1660,1660001,1917,2,-9,.,md point of swe coast,59.8,19.22,4,1
1661,1661001,1914,10,5,North Sea,North Sea,55.33333,3,5,1
1665,1665001,1921,1,6,Cuba,Havana,23.13194,-82.36417,5,1
1666,1666001,1921,5,-9,"Amapala, Honduras",Amapala,15.85,-85.55,1,1
1668,1668001,1922,11,-9,Vladivostok,"Vladivostok, Russia",43.13334,131.9,1,1
1669,1669001,1923,1,-9,Ethiopia,Addis Ababa,9.033334,38.7,5,1
1670,1670001,1925,12,-9,Libya,"Tripoli, Libya",32.8925,13.18,5,1
1671,1671001,1926,12,1,Franco-Italian border,mid pt on border,44.8075,6.994444,4,1
1674,1674001,1927,2,8,"Zhongdong Railway, Manchuria","Harbin, China",45.75,126.65,4,1
1677,1677001,1933,7,-9,Cuba,Havana,23.13194,-82.36417,5,1
1681,1681001,1881,2,-9,"Port-au-Prince, Haiti",Port-au-Prince,18.53917,-72.335,1,1
1683,1683001,1883,7,-9,"Tortugo Island, Haiti",Ile de la Tortue,20.05,-72.95,3,1
1684,1684001,1939,8,8,Brenner Pass,"Brenner Pass, Italy",47,11.5,4,1
1685,1685001,1939,9,14,Eastern Poland,"Liblin, Poland",49.91667,13.53333,3,1
1686,1686001,1939,8,29,swi-ger border,mid pt on border,47.71556,8.62,4,1
1687,1687001,1940,7,29,French Indochina,French Indochina,16,107,5,1
1693,1693001,1942,6,1,Atlantic Ocean,mid pt of ocean,16.41417,-37.57639,5,1
1694,1694001,1942,1,25,.,thailand,13.91,100.61,5,1
1695,1695001,1944,2,-9,Hungary,Budapest,47.5,19.08333,5,1
1696,1696001,1944,3,-9,Atlantic Ocean,mid pt of ocean,16.41417,-37.57639,5,1
1698,1698001,1947,2,15,.,md pt of CHI-ARG border,-36.78,-70.91,4,1
1701,1701001,1952,6,16,Baltic Sea near Sweden,Gotland,57.5,18.55,4,1
1702,1702001,1952,8,-9,Ecuadorian coastal waters,Manta,-0.9333333,-80.7,4,1
1703,1703001,1952,6,30,.,md pt of YUG-HUN border,45.778,18.227,4,1
1705,1705001,1954,9,7,Ecuadorian coastal waters,Manta,-0.9333333,-80.7,4,1
1706,1706001,1957,5,31,Algerian-Tunisian border,"Bou Aroua, Algeria",36.58333,2.3,4,1
1707,1707001,1958,7,2,"Aksai Chin, Ladakh Region","Ladakh, India",34.5,77.5,3,1
1708,1708001,1959,5,21,China/Burma border,"Luxi, China",24.51667,103.7667,4,1
1709,1709001,1959,12,28,off Korean coast,"Inchon, S.Korea",37.45361,126.7317,4,1
1710,1710001,1960,1,10,Waters off Inchon,"Inchon, S.Korea",37.45361,126.7317,3,1
1711,1711001,1960,3,-9,Algerian-Tunisian border,"Bou Aroua, Algeria",36.58333,2.3,4,1
1713,1713001,1966,7,22,Beijing China,"Beijing, China",39.92889,116.3883,1,1
1714,1714001,1866,3,27,"Valparaiso, Chile",Valparaiso,-33.04778,-71.60111,1,1
1715,1715001,1967,5,18,Sikkim,"Sikkim, India",27.75,88.5,3,1
1717,1717001,1969,6,26,Gibraltar,"Gibraltar, UK",36.13334,-5.35,3,1
1718,1718001,1971,8,2,.,md pt of usr-rom border,48.25,26.63,4,1
1720,1720001,1976,2,-9,alb-yug Border,mid pt of border,41.9125,20.63167,4,1
1723,1723001,1919,5,26,Karelia,"Karelia, Russia",64,32,1,1
1724,1724001,1917,4,4,Atlantic Odean,mid pt of ocean,16.41417,-37.57639,5,1
1725,1725001,1914,3,-9,Atlantic Ocean,mid pt of ocean,16.41417,-37.57639,5,1
1726,1726001,1916,5,-9,"Cardiff, United Kingdom",Cardiff,51.5,-3.2,1,1
1728,1728001,1975,11,23,Spratly Island,Spratly Island,8.633333,111.9167,3,1
1732,1732001,1915,3,-9,North Sea,North Sea,55.33333,3,5,1
1733,1733001,1932,2,22,Atlantic Ocean,mid pt of ocean,16.41417,-37.57639,5,1
1734,1734001,1911,1,2,.,guatemala,15.659,-89.998,5,1
1735,1735001,1825,9,25,"North Africa, Tripoli","Tripoli, Libya",32.8925,13.18,1,1
1736,1736001,1924,5,-9,"Sicily, Rhodes","Palermo, Sicilly",38.11666,13.36667,3,1
1737,1737001,1916,8,16,Atlantic Oceasn,mid pt of ocean,16.41417,-37.57639,5,1
1739,1739001,1888,7,-9,Thessaly,"Larissa, Greece",39.63334,22.41667,3,1
1740,1740001,1839,7,15,Pirara region (Brazil),Pirara region,3.05,-61.15,3,1
1742,1742001,1959,1,14,Cuba,Havana,23.13194,-82.36417,5,1
1743,1743001,1857,11,29,Mozambique channel,Mozambique Channel,-20,43,4,1
1745,1745001,1956,2,14,Northwest Nepal,Simikot,29.96667,81.83334,3,1
1746,1746001,1960,9,28,"Saidia, Morocco","Saidia, Morocco",35.13334,-2.416667,1,1
1749,1749001,1940,1,21,Atlantic Ocean,mid pt of ocean,16.41417,37.57639,5,1
1750,1750001,1876,5,6,"Besika Bay, Turkey",Besiktas,40.91667,42.86666,3,1
1752,1752001,1826,7,6,Coast of Brazil,Recife,-8.05,-34.9,4,1
1753,1753001,1833,9,3,Cartagena (Colombia),Cartagena,10.41667,-75.53333,1,1
1755,1755001,1852,5,-9,"Lobos Island, Peru",Lobos Island,-9.266666,-78.56667,3,1
1757,1757001,1856,10,-9,Colombian coast,"Barranquilla, Colombia",5.15,-73.88333,4,1
1761,1761001,1861,4,2,Dominican Republic,Puerto Plata,19.8,-70.68333,5,1
1762,1762001,1862,6,-9,Rio de Janeiro,Rio de Janeiro,-22.9,-43.23333,1,1
1763,1763001,1880,5,-9,Rio de la Plata,"Rio de la Plata, Mexico",20.55,-104.8333,4,1
1764,1764001,1885,7,-9,"Buenaventura, Colombia",Buenaventura,10.1,-75.05,1,1
1767,1767001,1908,10,15,Sea of Japan,Sea of Japan,43.5,135.75,5,1
1769,1769001,1914,7,26,"Coast of Bergen, Norway","Bergen, norway",60.39111,5.324722,1,1
1771,1771001,1911,7,18,Norvegian waters near Christiania,Christiana,59.91667,10.75,4,1
1772,1772001,1911,12,24,Red Sea,Red Sea,19,39.5,5,1
1773,1773001,1914,8,8,Angola,Luanda,-8.838333,13.23444,5,1
1774,1774001,1914,10,30,.,ger coast,54.04,13.97,4,1
1775,1775001,1915,6,2,us-mex border,mid pt of border,31.21917,-105.9383,4,1
1776,1776001,1917,4,25,Atlantic Ocean,mid pt of ocean,16.41417,-37.57639,5,1
1777,1777001,1918,4,-9,Manchuria,"Harbin, China",45.75,126.65,3,1
1778,1778001,1920,6,6,Albania,Tirana,41.3275,19.81889,5,1
1779,1779001,1922,4,1,Afganistan-USSR border,"Termez, Uzbekistan",37.23861,67.27834,4,1
1780,1780001,1923,8,24,Fume,"Rio Fume, Spain",43.41667,-8.133333,4,1
1781,1781001,1925,12,18,Urta Tagail Island,"Urta Toghai, Afghanistan",37.5,69.5,3,1
1783,1783001,1940,4,18,ger-swi border,mid pt of border,47.71556,8.62,4,1
1785,1785001,1941,8,2,Thailand,Bangkok,13.75,100.5167,5,1
1786,1786001,1941,12,6,Finland,Helsinki,60.17556,24.93417,5,1
1787,1787001,1942,1,18,Atlantic Ocean,mid pt of ocean,16.41417,-37.57639,5,1
1788,1788001,1943,9,13,ger-swi border,mid pt of border,47.71556,8.62,4,1
1789,1789001,1943,11,27,Atlantic Ocean,mid pt of ocean,16.41417,-37.57639,5,1
1790,1790001,1944,12,18,Hungary,Budapest,47.5,19.08333,5,1
1792,1792001,1946,4,-9,thai-viet border,gulf of thailand,9.955556,104.5528,4,1
1793,1793001,1948,5,14,.,israel,31.585,35.227,5,1
1796,1796001,1959,2,9,Algerian-Tunisian border,"Bou Aroua, Algeria",36.58333,2.3,4,1
1797,1797001,1960,6,28,Mistarig region NW Nepal,"Simikot, Nepal",29.76611,81.81944,3,1
1799,1799001,1961,1,-9,Sea of Japan,Sea of Japan,43.5,135.75,5,1
1800,1800001,1865,8,1,Mexico,Mexico City,19.43417,-99.13861,5,1
1801,1801001,1961,5,2,Coastal waters of the Dom Republic,Santo Domingo,18.46667,-69.9,4,1
1803,1803001,1963,5,28,Ecuadorian coastal waters,"Manta, Ecuador",-0.95,-80.73333,4,1
1804,1804001,1965,11,11,.,zim-zam border,-17.006,27.794,4,1
1805,1805001,1967,1,9,Coastal waters of Ecuadore,Bahia de Manta,-0.9333333,-80.7,4,1
1806,1806001,1968,1,18,.,VIE-CAM,11.96,106.7,4,1
1807,1807001,1968,10,10,off Ghanan coast,"Accra, Ghana",5.55,-0.2166667,4,1
1808,1808001,1973,1,26,.,arg-uru border,-32.19,-57.92,4,1
1809,1809001,1975,6,26,Kenya,Nairobi,-1.283333,36.81667,5,1
1810,1810001,1919,11,25,Fuzhou Shantung Province,"Fuzhou, China",26.06139,119.3061,3,1
1900,1900001,1961,3,31,North Sea Faeroe Islands,Faroe Islands,62,-7,3,1
2000,2000001,1953,5,11,West Irian,"Irian Jaya, Indonesia",-5,138,3,1
2001,2001001,1953,9,20,Shan State of Kentung,"Kentung, Burma",21.28333,99.6,3,1
2002,2002001,1960,5,27,Manchuria,"Harbin, China",45.75,126.65,3,1
2003,2003001,1866,4,27,"Callao, Peru",Callao,-12.06667,-77.15,1,1
2004,2004001,1885,12,-9,"Buenaventura, Colombia",Buenaventura,10.1,-75.05,1,1
2005,2005001,1903,2,4,Acre,"Acre, Brazil",-9,-70,3,1
2006,2006001,1949,10,2,Taiwan Straits,Taiwan Straits,24,119,5,1
2007,2007001,1949,10,18,Taiwan Straits,Taiwan Straits,24,119,5,1
2008,2008001,1950,6,5,Taiwan Straits,Taiwan Straits,24,119,5,1
2009,2009001,1950,8,17,Taiwan Straits,Taiwan Straits,24,119,5,1
2010,2010001,1950,11,23,Northern Vietnam,Thai Nguyen,21.59278,105.8442,3,1
2012,2012001,1850,12,-9,Parana river,"Corrientes, Argentina",-27.46667,-58.83333,4,1
2013,2013001,1838,8,-9,Pirara region (Brazil),Pirara region,3.05,-61.15,3,1
2014,2014001,1864,12,6,Chincha Islands,"Chincha, Peru",-17.33972,-71.00472,3,1
2015,2015001,1966,6,12,Mekong river,"Mekong river, Vietnam",10.25,105.9167,4,1
2016,2016001,1969,5,5,Mekong river,"Mekong river, Vietnam",10.25,105.9167,4,1
2017,2017001,1970,2,25,Mekong river,"Mekong river, Vietnam",10.25,105.9167,4,1
2018,2018001,1953,10,16,thai-burm border,mid pt of border,16.21139,98.675,4,1
2019,2019001,1957,2,11,West Irian,"Irian Jaya, Indonesia",-5,138,3,1
2020,2020001,1948,7,21,Nahi Village,"Nahi, Iran",29.96667,48.55,1,1
2021,2021001,1949,12,14,Yunnan Province,"Yunnan, China",25,102,3,1
2022,2022001,1952,2,15,thai-viet border,gulf of thailand,9.955556,104.5528,4,1
2023,2023001,1954,3,28,Tak Province,"Tak, Thailand",16.86667,99.13333,3,1
2024,2024001,1955,3,3,Tak Province,"Tak, Thailand",16.86667,99.13333,3,1
2025,2025001,1957,9,20,burm-ind border,mid pt of border,24.73139,94.65861,4,1
2027,2027001,1961,11,26,Coast of Luzon Islands,"Luzon, Philippines",16,121,4,1
2028,2028001,1960,8,25,Mekong River,"Mekong river, Vietnam",10.25,105.9167,4,1
2029,2029001,1960,12,27,viet-laos border,mid pt of border,18.23889,105.3097,4,1
2030,2030001,1960,9,22,"Vientiane,Laos","Viangchan, Laos",17.96667,102.6,5,1
2031,2031001,1964,2,16,Mekong River,"Mekong river, Vietnam",10.25,105.9167,4,1
2032,2032001,1955,5,11,Korea,Seoul,37.56639,126.9997,5,1
2033,2033001,1954,7,23,South China Sea,South China Sea,15,115,5,1
2034,2034001,1954,7,23,South China sea,South China sea,15,115,5,1
2035,2035001,1953,8,1,Korea,Seoul,37.56639,126.9997,5,1
2036,2036001,1953,6,24,Taiwan Straits,Taiwan Straits,24,119,5,1
2037,2037001,1955,1,19,Taiwan Straits,Taiwan Straits,24,119,5,1
2038,2038001,1958,8,27,Hong Kong - Guangdong Province,Hong Kong,22.25,114.1833,1,1
2040,2040001,1920,2,-9,Honduran side of the border,"La Esperanza, Honduras",14.78333,-88.16666,4,1
2041,2041001,1949,2,16,Dominican-Haitian border,"Banica, DR",19.08333,-71.7,4,1
2042,2042001,1957,5,3,Costa Rican-Nicaraguan border,"Los Chiles, Costa Rica",11.03333,-84.71667,4,1
2043,2043001,1866,11,3,Curuzu on the Rio Paraguay,"Curuzu, Paraguay",-27.13333,-58.65,1,1
2044,2044001,1875,6,19,"Paraguay; Matto Grosso,Brazil","Chaco Boreal, Paraguay",-23,-60,3,1
2045,2045001,1876,3,-9,Salvadoran Coast,"La Libertad, El Sal",13.96667,-89.68333,4,1
2046,2046001,1890,7,27,Guatemalan coast,mid pt of coastline,13.77,-91.22833,4,1
2047,2047001,1911,2,-9,Paraguay-Argentinean border,"Formosa Roque, Arg",-25,-60,4,1
2048,2048001,1921,12,13,Peruvian-Chilean border,"Tacna, Peru",-18.00556,-70.24834,4,1
2049,2049001,1957,6,12,.,taiwan straits,24.61,119.9,5,1
2050,2050001,1932,9,9,.,"pt of border between BRA, PER, COL",-4.17,-69.679,2,1
2052,2052001,1951,2,16,.,taiwan straits,24.61,119.9,5,1
2053,2053001,1979,3,26,.,pt closest between pak and usr within afg,36.859,72.558,3,1
2054,2054001,1983,9,18,.,pt closest between pak and usr within afg,36.859,72.558,3,1
2056,2056001,1936,11,12,Spain,Madrid,40.4,-3.683333,5,1
2059,2059001,1971,7,4,Yugoslavia near Bulgarian border,"Pirot, Yugoslavia",43.15917,22.58889,4,1
2066,2066001,1965,6,12,Ogaden,"Ogaden, Ethiopia",8,44,2,1
2067,2067001,1966,3,31,Ogaden,"Ogaden, Ethiopia",8,44,2,1
2068,2068001,1973,4,-9,Ogaden,"Ogaden, Ethiopia",8,44,2,1
2069,2069001,1977,2,22,.,md pt on som-eth border,7.896,48.097,4,1
2070,2070001,1978,4,14,Ogaden,"Ogaden, Ethiopia",8,44,2,1
2071,2071001,1980,2,24,Ogaden,"Ogaden, Ethiopia",8,44,2,1
2072,2072001,1982,6,30,Ogaden,"Ogaden, Ethiopia",8,44,2,1
2073,2073001,1984,1,30,Ogaden,"Ogaden, Ethiopia",8,44,2,1
2074,2074001,1984,12,20,Ogaden,"Ogaden, Ethiopia",8,44,2,1
2075,2075001,1985,9,17,Ogaden,"Ogaden, Ethiopia",8,44,2,1
2076,2076001,1891,4,-9,"Rio Gallegos, Argentina",Rio Gallegas,-51.6,-68.98333,4,1
2077,2077001,1905,3,-9,Beagle Channel,"Beagle Channel, Arg",-54.88334,-68.16666,4,1
2078,2078001,1909,7,7,Beagle Channel,"Beagle Channel, Arg",-54.88334,-68.16666,4,1
2079,2079001,1958,11,3,Alto Palena,"Alto Palena, Chile",-43.61666,-71.8,1,1
2080,2080001,1964,7,25,Alto Palena,"Alto Palena, Chile",-43.61666,-71.8,1,1
2081,2081001,1977,7,14,Beagle Channel,"Beagle Channel, Argentina",-54.88334,-68.16666,4,1
2082,2082001,1978,8,18,Beagle Channel,"Beagle Channel, Argentina",-54.88334,-68.16666,4,1
2083,2083001,1980,9,7,Beagle Channel,"Beagle Channel, Argentina",-54.88334,-68.16666,4,1
2084,2084001,1981,4,25,Mendoza Province,"Mendoza Province, Argentina",-34.5,-68.5,3,1
2085,2085001,1981,9,21,Beagle Channel,"Beagle Channel, Argentina",-54.88334,-58.16667,4,1
2086,2086001,1983,8,18,Beagle Channel,"Beagle Channel, Argentina",-54.88334,-68.16666,4,1
2087,2087001,1984,10,19,Beagle Channel,"Beagle Channel, Argentina",-54.88334,-68.16666,4,1
2088,2088001,1950,11,16,"Nilang, Tibet-Indian Border","Nilanga, India",18.1,76.76667,1,1
2089,2089001,1954,6,29,Niti Pass,"Niti Pass, India",30.96667,79.88333,1,1
2090,2090001,1955,6,25,Niti Pass,"Niti Pass, India",30.96667,79.88333,1,1
2091,2091001,1956,5,2,"Nilang, Tsang Chokla Pass","Nilanga, India",18.1,76.76667,1,1
2092,2092001,1956,6,7,Niti Pass,"Niti Pass, India",30.96667,79.88333,1,1
2093,2093001,1958,8,2,Niti Pass,"Niti Pass, India",30.96667,79.88333,1,1
2094,2094001,1962,12,1,Numerous places on ind-chn border,mid pt of border,32.60028,79.50723,4,1
2095,2095001,1964,4,7,Border near Sikkim/Bhutan,"Gangtok, India",27.33333,88.61667,3,1
2096,2096001,1965,4,25,Ladakh,"Ladakh, India",34.5,77.5,3,1
2097,2097001,1967,7,17,"Beijing, China","Beijing, China",39.92889,116.3883,1,1
2098,2098001,1969,3,23,Sikkim,"Sikkim, India",27.75,88.5,3,1
2099,2099001,1971,12,10,Sikkim,"Sikkim, India",27.75,88.5,3,1
2100,2100001,1973,4,12,Sikkim,"Sikkim, India",27.75,88.5,3,1
2101,2101001,1979,2,27,"NEFA, Twang tract and Sikkim","Sikkim, India",27.75,88.5,3,1
2102,2102001,1985,12,-9,"NEFA, Twang Tract","tawang, india",27.67306,92.16472,3,1
2103,2103001,1934,12,-9,iraq-iran border,mid pt of border,33.62583,45.85639,4,1
2104,2104001,1953,2,10,Khormanshah (irn-irq),gulf of khormanshah,29.82389,48.42861,3,1
2105,2105001,1961,2,10,Shatt-al-Arab,Shatt-al-Arab (Iran/Iraq),29.94972,48.57306,3,1
2106,2106001,1965,12,18,Kordestan,"Kordestan, Iran",37,44,3,1
2107,2107001,1966,5,23,Kordestan,"Kordestan, Iran",35.5,47,3,1
2108,2108001,1969,9,14,Kordestan,"Kordestan, Iran",37,44,3,1
2109,2109001,1970,1,20,Baghdad,"Baghdad, Iraq",33.33861,44.39389,1,1
2110,2110001,1971,4,14,Khanaqin region,"Khanaqin, Iraq",34.5,45.35,3,1
2111,2111001,1973,1,2,Kordestan,"Kordestan, Iran",37,44,3,1
2112,2112001,1974,1,24,Badrah,"Badrah, Iraq",33.12056,45.9575,1,1
2113,2113001,1979,2,27,"Sar Dasht, Qasr-e-Shirin","Sar Dasht, Iran",31.4,49.88334,1,1
2114,2114001,1979,10,24,"Khuzistan, Shatt-al-arab",Shatt-al-Arab (Iran/Iraq),29.94972,48.57306,3,1
2115,2115001,1980,8,27,Shatt-al-Arab,Shatt-al-Arab (Iran/Iraq),29.94972,48.57306,3,1
2116,2116001,1842,10,18,"Monterey, CA, USA","Monterey, ca",36.58167,-121.8689,1,1
2117,2117001,1870,6,17,Tecapan River,"Tecpan, Mexico",16.25,-95.96667,4,1
2118,2118001,1984,1,15,"Rio Corrientes, Zamora-Santiago zone",cordillera del condor (EC-PER),-3.51,-78.3175,4,1
2119,2119001,1981,1,23,Zamora-Santiago zone,cordillera del condor (EC-PER),-3.51,-78.3175,3,1
2120,2120001,1977,6,21,Zamora-Santiago zone,cordillera del condor (EC-PER),-3.51,-78.3175,3,1
2121,2121001,1953,2,27,Zamora-Santiago zone,cordillera del condor (EC-PER),-3.51,-78.3175,3,1
2122,2122001,1950,10,21,Zamora-Santiago zone,cordillera del condor (EC-PER),-3.51,-78.3175,3,1
2123,2123001,1943,2,-9,"Cerro Verde, Loja province","Loja, Ecuador",-4.166667,-79.5,3,1
2124,2124001,1942,2,11,Jambeli Island,"Jambeli Island, Ecuador",-3.333333,-80.06667,3,1
2125,2125001,1937,4,-9,Zarumilla River,"Zaruma, Ecuador",-3.683333,-79.61667,4,1
2126,2126001,1911,1,27,Pocitas Zone,"Pocitas, Peru",22.13333,-79.63333,3,1
2127,2127001,1891,8,-9,"Rio Napo, Oriente","Oriente, Ecuador",-2,-77,3,1
2128,2128001,1886,8,10,Rio Paraguay,"Asuncion, Paraguay",-25.26667,-57.66667,4,1
2129,2129001,1921,10,-9,Rio Pilcomayo,"Rio Pilcomayo, Bolivia",-19.38333,-65.88333,4,1
2130,2130001,1923,10,-9,Chaco Boreal,"Chaco Boreal, Paraguay",-23,-60,3,1
2131,2131001,1924,8,-9,Chaco Boreal,"Chaco Boreal, Paraguay",-23,-60,3,1
2132,2132001,1927,2,26,Chaco Boreal,"Chaco Boreal, Paraguay",-23,-60,3,1
2133,2133001,1930,1,16,Rio Paraguay,"Asuncion, Paraguay",-25.26667,-57.66667,4,1
2134,2134001,1936,3,-9,"Boyuibb,Chaco Boreal","Chaco Boreal, Paraguay",-23,-60,3,1
2135,2135001,1937,5,-9,"Boyuibb,Chaco Boreal","Chaco Boreal, Paraguay",-23,-60,3,1
2136,2136001,1974,11,7,Kagera Salient,"Kagera River, Tanzania",-0.95,31.78333,4,1
2137,2137001,1975,3,-9,"Umm Hagar, Sudan","Umm Hagar, Eritrea",14.325,36.65528,1,1
2138,2138001,1972,9,20,Libya-Sudan border,"Jabal Kissu, Sudan",21.58333,25.15,4,1
2139,2139001,1977,4,17,Border with Belize,"Caracol, Belize",16.7575,-89.12473,4,1
2140,2140001,1977,2,24,Kagera Salient,"Kagera River, Tanzania",-0.95,31.78333,4,1
2141,2141001,1978,10,9,.,md pt TAZ-UGA border,-1.121,32.144,4,1
2142,2142001,1977,1,1,.,eth-sud border,10.62,34.51,4,1
2143,2143001,1977,1,8,Tacna and Arica,"Tacna, Peru",-18.00556,-70.24834,1,1
2144,2144001,1977,2,4,.,coast of ken-taz border,-4.85,39.46,2,1
2145,2145001,1928,10,31,Mato Grosso,"Mato Grosso, Brazil",-22.86667,-42.6,1,1
2146,2146001,1928,10,31,Mato Grosso,"Mato Grosso, Brazil",-22.86667,-42.6,1,1
2148,2148001,1977,4,26,Zaire-Angola border,"Chitato, Angola",-7.3,20.85,4,1
2149,2149001,1977,5,-9,laos-camb border,mid pt on border,14.40694,106.3131,4,1
2150,2150001,1977,3,8,.,zai-ang border (north),-5.135,12.772,4,1
2152,2152001,1980,2,3,Yemen-S.Arabia border,"Najran, Saudi Arabia",17.46667,44.1,4,1
2153,2153001,1964,9,1,Yemen,Al Mukalla,14.53,49.13139,5,1
2155,2155001,1966,12,31,Border of Saudi Arabia & Yemen,"Zamakh, Yemen",16.45,47.6,4,1
2157,2157001,1963,1,29,Behan,"Behan, Iran",35.78333,52.4,1,1
2163,2163001,1983,2,19,"Larnaca, Cyprus",Larnaca,34.91667,33.62917,1,1
2168,2168001,1871,5,7,"Paris, France",Paris,48.86666,2.333333,1,1
2169,2169001,1871,6,24,"Paris, France",Paris,48.86666,2.333333,1,1
2170,2170001,1885,11,-9,Togo and Dahomey,"Grand Popo, Benin",6.283333,1.833333,5,1
2171,2171001,1965,3,16,Cyprus,Nicosia,35.16667,33.36666,5,1
2172,2172001,1965,11,6,Cyprus,Nicosia,35.16667,33.36666,5,1
2173,2173001,1974,9,13,Aegean see,Aegean Sea,39,25,3,1
2174,2174001,1978,11,1,Aegean sea,Aegean Sea,39,25,5,1
2175,2175001,1981,3,21,Aegean Sea,Aegean Sea,39,25,5,1
2176,2176001,1982,12,1,.,cyprus,35.06,33.41,5,1
2177,2177001,1984,10,17,"Aegean Sea, Cyprus","Nicosia, Cyprus",35.16667,33.36666,5,1
2178,2178001,1986,7,2,Cyprus,"Nicosia, Cyprus",35.16667,33.36666,5,1
2179,2179001,1986,6,27,Aegean Sea,Aegean Sea,39,25,5,1
2180,2180001,1951,5,8,Pakistan-Afghanistan border,"Peshawar, pakistan",34.00195,71.55945,4,1
2181,2181001,1956,5,19,Pakistan-Afghanistan,"Jalalabad, Afghanistan",36.76667,65.86667,4,1
2182,2182001,1917,12,-9,Manchuria,"Harbin, China",45.75,126.65,3,1
2183,2183001,1913,7,15,"Ciaris Estro, Mexico",Ciaris Estero,27.01667,-109.9833,1,1
2184,2184001,1918,3,30,us-mex border,mid pt of border,31.21917,-105.9383,4,1
2185,2185001,1919,6,16,Texas-Mexico border,"Ciudad Acuna, Mexico",29.3,-100.9167,4,1
2186,2186001,1949,5,5,Ongjin Peninsula,"Ongjin-bando, N.Korea",37.92556,125.1078,3,1
2187,2187001,1958,3,7,.,PRK-KOR border,38.27,127.3,4,1
2188,2188001,1962,6,2,.,PRK-KOR border,38.27,127.3,4,1
2189,2189001,1963,5,17,.,PRK-KOR border,38.27,127.3,4,1
2190,2190001,1970,3,14,Korea:DMZ,"Ch'orwon, S.Korea",38.20917,127.2175,4,1
2191,2191001,1974,2,15,Yellow Sea,Yellow Sea,36,124,5,1
2192,2192001,1977,4,28,.,PRK-KOR border,38.27,127.3,4,1
2193,2193001,1979,3,1,.,PRK-KOR border,38.27,127.3,4,1
2194,2194001,1981,7,7,Korea:DMZ,mid pt of border,38.35611,127.4631,4,1
2195,2195001,1983,2,1,.,PRK-KOR border,38.27,127.3,4,1
2196,2196001,1984,11,13,.,PRK-KOR border,38.27,127.3,4,1
2198,2198001,1986,8,11,Korea:DMZ,mid pt of border,38.35611,127.4631,4,1
2199,2199001,1873,6,-9,Formosa,"Formosa, Brazil",-23.78333,-45.35,1,1
2200,2200001,1875,3,-9,"Ryukyu Islands, Japan",Ryukyu Islands,26.5,128,3,1
2201,2201001,1879,3,25,"Ryukyu Islands, Japan",Ryukyu Islands,26.5,128,3,1
2202,2202001,1882,7,31,"Seoul, Korea",Seoul,37.56639,126.9997,1,1
2203,2203001,1907,10,-9,Manchuria,"Harbin, China",45.75,126.65,3,1
2204,2204001,1909,4,22,"Manchuria, Chiento Jilin province","Jilin, China",43.85,126.5603,1,1
2205,2205001,1916,8,1,"Zhengjiatun, Liaoyang Province","Liaoyang, China",41.22611,123.0561,3,1
2206,2206001,1920,6,7,Chientao (Jilin province),"Jilin, China",43.85,126.5603,3,1
2207,2207001,1925,12,5,Mukden (Liaoyang Province) Manchuria,"Mukden, China",41.79222,123.4328,3,1
2209,2209001,1927,4,2,Hankow,"Hangkow, China",30.58333,114.2667,1,1
2210,2210001,1927,5,30,Shantung province,"Shantung Province, China",36,119,3,1
2211,2211001,1933,4,8,"Chahar Province, Inner Mongolia","Chahar, China",40.77722,113.2036,3,1
2212,2212001,1935,5,20,Hopei Province,"Paoting, China",18.78167,109.5253,3,1
2213,2213001,1935,6,13,"Charar Province, Inner Mongolia","Inner Mongolia, China",44,112,3,1
2214,2214001,1936,7,10,Hopei,"Paoting, China",18.78167,109.5253,3,1
2215,2215001,1958,6,27,Armenia,Yerevan,40.18333,44.5,5,1
2216,2216001,1958,11,7,Baltic Sea,Baltic Sea,56,18,5,1
2217,2217001,1961,7,25,Cuba,Havana,23.13194,-82.36417,5,1
2218,2218001,1963,4,2,.,berlin,52.52,13.38,5,1
2219,2219001,1961,11,19,.,berlin,52.52,13.38,1,1
2220,2220001,1964,1,28,East Germany,Berlin,52.51667,13.48333,5,1
2221,2221001,1970,10,21,Armenia,Yerevan,40.18333,44.5,5,1
2222,2222001,1977,4,9,"US coastal waters, Atlantic Ocean",Gulf of Maine,43,-68.5,4,1
2223,2223001,1978,11,19,Iran,Tehran,35.67194,51.42445,5,1
2224,2224001,1979,8,9,Pacific Ocean,mid pt of ocean,1.840833,-157.7667,5,1
2225,2225001,1979,8,31,.,waters off of cuba,22.74,-75.58,4,1
2227,2227001,1980,5,4,Yugoslavia,Belgrade,44.81194,20.46556,5,1
2228,2228001,1981,5,12,New York,"New York, USA",41.00167,-73.85306,1,1
2229,2229001,1982,6,23,.,northern tip of JAP,45.31,142.01,3,1
2230,2230001,1984,9,12,Bering Sea,Bering Sea,60,-175,5,1
2231,2231001,1983,11,24,.,berlin,52.52,13.38,5,1
2232,2232001,1985,3,24,.,berlin,52.52,13.38,5,1
2233,2233001,1986,3,13,Black Sea,Black Sea,43,35,5,1
2234,2234001,1911,7,16,.,haiti,19.11,-72.54,5,1
2236,2236001,1856,8,10,Rio Paraguay,"Asuncion, Paraguay",-25.26667,-57.66667,4,1
2237,2237001,1981,7,24,.,guy-ven border,6.858,-60.16,4,1
2239,2239001,1969,1,18,Venezuelan-Guyana border,"Bochinche, Venezuela",7.566667,-60.73333,4,1
2240,2240001,1970,2,19,Ankoko island,"Ankoko Island, Venezuela",6.716667,-61.13334,3,1
2242,2242001,1860,8,16,Ecuador,Quito,-0.2166667,-78.5,5,1
2243,2243001,1837,1,21,Colombia's ports,"Barranquilla, Colombia",5.15,-73.88333,4,1
2244,2244001,1954,1,13,.,PRK-KOR border,38.27,127.3,4,1
2245,2245001,1987,2,12,.,md pt on som-eth border,7.896,48.097,4,1
2300,2300001,1893,12,23,"Waima, Siera Leone",Waima,8.75,-11.23333,1,1
2302,2302001,1939,3,12,Czechoslovakia,Prague,50.08333,14.46667,5,1
2303,2303001,1937,8,13,off Bizerte Tunisia,Cap Bizerte,37.33333,9.866667,2,1
2304,2304001,1937,8,31,Off the Spanish Coast,Cadiz,36.53361,-6.299445,4,1
2306,2306001,1937,8,14,"Off Tunis, Tunisia",Tunis,36.80278,10.17972,2,1
2307,2307001,1937,8,12,"Barcelona,Spain",Barcelona,41.38334,2.183333,1,1
2309,2309001,1908,5,14,"Casablanca, Morocco",Casablanca,33.59306,-7.616389,1,1
2310,2310001,1916,5,3,Veracruz,"Veracruz, Mexico",31.48333,-107.4,1,1
2311,2311001,1913,11,20,"British Honduras, Gulf of Mexico","Belize City, Belize",17.48333,-88.18333,5,1
2312,2312001,1913,10,14,Veracruz,"Veracruz, Mexico",31.48333,-107.4,1,1
2313,2313001,1913,11,29,Veracruz,"Veracruz, Mexico",31.48333,-107.4,1,1
2315,2315001,1986,10,26,Yellow Sea,Yellow Sea,36,124,5,1
2316,2316001,1930,2,-9,Ilha Margarida,"Ilha Magarida, Brazil",-11.08333,-55.61666,3,1
2317,2317001,1976,4,-9,Essequibo area,"Essequibo River, Guyana",7.033333,-58.45,3,1
2318,2318001,1976,4,-9,Courantyne River area,"Courantyne River, Guyana",5.7544,-57.1642,4,1
2319,2319001,1972,1,27,Belize's Carribean Sea,Glover Reef,16.8,-87.78333,4,1
2320,2320001,1875,3,-9,"Yungayo District, Peru",Yunguyo,-16.03278,-69.43333,3,1
2321,2321001,1906,6,-9,Madre de Dios area near Puerto Heath,"Puerto Heath, Bolivia",-12.5,-68.66666,2,1
2322,2322001,1858,1,24,Chincha Islands,"Chincha, Peru",-13.63333,-76.41666,3,1
2323,2323001,1982,7,13,"Guajira Peninsula, Colombia","Guajira Peninsula,",12,-71.5,3,1
2325,2325001,1979,11,-9,Nicaraguan-Honduran border,"Plis, Nicaragua",14.15,-85.43333,4,1
2326,2326001,1977,9,-9,Courantyne River,"Courantyne River, Guyana",5.95,-57.1,4,1
2327,2327001,1976,8,10,"Tyre, Lebanon","Tyre, Lebanon",33.27111,35.19639,1,1
2328,2328001,1949,3,-9,Yugoslavia-Albania border,"Krume, Albania",42.19695,20.41333,4,1
2331,2331001,1958,7,17,.,"Basra, Iraq",30.49,47.82,2,1
2332,2332001,1958,7,15,Iraq-Turkey border,"Cukurca, Turkey",41.06667,32.68333,4,1
2335,2335001,1976,8,31,Gulf of Suez,"Suez, Egypt",28.16667,33.45,3,1
2338,2338001,1901,1,22,Venezuela,Caracas,10.5,-66.91666,5,1
2339,2339001,1948,12,11,Costa Rica border territory,mid pt of border,10.935,-84.68389,4,1
2340,2340001,1948,4,19,Nicaragua-Costa Rica Border,mid pt of border,10.935,-84.68389,4,1
2342,2342001,1902,6,4,Colombian-Venezuelan border,"Culebra, Col",11.15,-74.11667,4,1
2343,2343001,1896,4,3,"Puerto Cabello, Venezuela",Puerto Cabello,10.47306,-68.16666,1,1
2344,2344001,1962,8,14,Nicaragua-Honduras border,"Jalapa, Nicaragua",13.91667,-86.13333,4,1
2346,2346001,1978,9,12,Nicaragua-Costa Rica border,"Los Chiles, Costa Rica",11.03333,-84.71667,4,1
2347,2347001,1981,4,30,.,NIC-HON border,14.01,-85.372,4,1
2348,2348001,1982,8,2,Guatemalan-Mexican border,"Santa Amelia, Guatemala",17.56556,-90.59111,4,1
2349,2349001,1983,9,28,Nicaragua-Costa Rican border,"Los Chiles, Costa Rica",11.03333,-84.71667,4,1
2350,2350001,1984,4,30,Guatemalan-Mexican border,"Chajul, Mexico",16.11667,-90.91666,4,1
2352,2352001,1985,7,10,Honduras-El Salvador border,"La Virtud, Honduras",14.05,-88.7,4,1
2353,2353001,1986,1,7,.,NIC-HON border,14.01,-85.372,4,1
2354,2354001,1986,1,31,Dom. Rep-Haiti border,"Comendador, DR",18.8775,-71.70277,4,1
2356,2356001,1986,6,5,Los Monjes Islands,"Los Monjes, Venezuela",12.41667,-70.91666,3,1
2357,2357001,1978,7,2,Border region between N and S Yemen,"Minwakh, Yemen",16.80778,48.10917,4,1
2360,2360001,1965,4,6,.,YEM-SAU border,17.23,47.46,4,1
2362,2362001,1967,5,12,Najran and Qizam S.Arabia,"Najran, Saudi Arabia",17.5,44.16667,1,1
2363,2363001,1918,7,-9,Caucasus and Transcaucasus,"Yerevan, Armenia",40.18333,44.5,5,1
2364,2364001,1920,2,-9,Crimea,"Sevastopol, Russia",53.45555,35.18361,5,1
2365,2365001,1918,11,23,.,st petersburg,59.9,30.4,2,1
2366,2366001,1918,6,28,.,st petersburg,59.9,30.4,2,1
2367,2367001,1854,1,1,.,cyprus,35.06,33.41,5,1
2368,2368001,1887,1,28,France,Paris,48.83333,2.333333,5,1
2369,2369001,1887,4,20,France-near German border,"Strasbourg, France",48.58333,7.75,4,1
2371,2371001,1946,3,1,Albania-Greece border,"Leskovik, Albania",40.14917,20.5975,4,1
2372,2372001,1952,7,23,Yugoslav-Albanian border,"Krume, Albania",42.19695,20.41333,4,1
2373,2373001,1969,11,5,Najran S.Arabia,"Najran, Saudi Arabia",18,45.66667,1,1
2374,2374001,1975,2,8,Centa and Melilla,"Melilla, Spain",-34.78333,-56.25,1,1
2540,2540001,1985,8,20,Gulf of Sidra on Libyan/Tun border,"Gulf of Sidra, Libya",31.5,18,3,1
2541,2541001,1984,3,7,Bay of Biscay,Bay of Biscay,44,-4,3,1
2542,2542001,1984,10,20,Irish sea,Irish Sea,53.66667,-5,5,1
2543,2543001,1985,7,24,Irish sea,Irish Sea,53.66667,-5,5,1
2544,2544001,1985,7,19,Persian Gulf,Persian Gulf,27,51,5,1
2545,2545001,1985,7,10,Persian Gulf,Persian Gulf,27,51,5,1
2546,2546001,1985,5,31,Nicaragua/Costa Rica border,"Los Chiles, Costa Rica",11.03333,-84.71667,4,1
2547,2547001,1985,4,30,Persian gulf,Persian Gulf,27,51,5,1
2548,2548001,1985,3,25,Persian gulf,Persian Gulf,27,51,5,1
2549,2549001,1985,3,25,Persian gulf,Persian Gulf,27,51,5,1
2550,2550001,1985,3,22,S.Korean waters near Huxan,"Huksan, South Korea",34.5,125.3333,2,1
2551,2551001,1985,3,19,Persian Gulf,Persian Gulf,27,51,5,1
2552,2552001,1985,3,15,Persian Gulf,Persian Gulf,27,51,5,1
2553,2553001,1985,2,21,Persian Gulf,Persian Gulf,27,51,5,1
2554,2554001,1985,2,20,Persian Gulf,Persian Gulf,27,51,5,1
2555,2555001,1985,2,20,Persian Gulf,Persian Gulf,27,51,5,1
2557,2557001,1985,9,23,Persian Gulf,Persian Gulf,27,51,5,1
2558,2558001,1985,9,7,Persian Gulf,Persian Gulf,27,51,5,1
2559,2559001,1985,9,29,.,cze-wger border,49.408,13.138,4,1
2560,2560001,1985,10,18,Persian Gulf,Persian Gulf,27,51,5,1
2561,2561001,1985,10,10,Persian Gulf,Persian Gulf,27,51,5,1
2563,2563001,1985,10,1,"Tunis, Tunisia",Tunis,36.80278,10.17972,1,1
2565,2565001,1986,8,26,Persian Gulf,Persian Gulf,27,51,5,1
2566,2566001,1986,8,27,Kurdistan,"Kordestan, Iran",37,44,3,1
2567,2567001,1986,8,16,South Yemen,San'a',16.08333,49.66667,5,1
2568,2568001,1986,7,29,Persian Gulf,Persian Gulf,27,51,5,1
2570,2570001,1986,5,19,Zimbabwe,Harare,-17.83333,31.05,5,1
2571,2571001,1986,5,19,Zambia,Lusaka,-15.41667,28.28333,5,1
2572,2572001,1986,4,26,Fasht al Dibal I,"Fashtal, Iran",37.14083,49.825,2,1
2573,2573001,1986,4,16,Nicaragua/Costa Rica border,"Los Chiles, Costa Rica",11.03333,-84.71667,4,1
2574,2574001,1986,4,6,Persian Gulf,Persian Gulf,27,51,5,1
2575,2575001,1986,3,2,Persian Gulf,Persian Gulf,27,51,5,1
2578,2578001,1986,1,13,Persian Gulf,Persian Gulf,27,51,5,1
2579,2579001,1986,5,28,Waters of Arg and Falkland Islands,Burdwood Bank,-54.25,-59,4,1
2580,2580001,1986,1,6,Botswana,Gaborone,-24.64639,25.91195,5,1
2583,2583001,1985,12,12,B.Faso/Mali border,"Kiri, Mali",13.96667,-3.033333,4,1
2584,2584001,1985,12,17,Persian Gulf,Persian Gulf,27,51,5,1
2585,2585001,1985,11,20,Persian Gulf,Persian Gulf,27,51,5,1
2588,2588001,1986,9,3,Persian Gulf,Persian Gulf,27,51,5,1
2590,2590001,1983,4,30,Iran Afganistan border,"Duruh, Iran",32.285,60.49889,4,1
2591,2591001,1986,2,4,off coast of Cyprus,Limassol,34.675,33.03333,4,1
2593,2593001,1986,11,18,Persian Gulf,Persian Gulf,27,51,5,1
2594,2594001,1986,10,22,Persian Gulf,Persian Gulf,27,51,5,1
2595,2595001,1986,10,2,Persian Gulf,Persian Gulf,27,51,5,1
2596,2596001,1986,9,23,Persian Gulf,Persian Gulf,27,51,5,1
2597,2597001,1986,9,18,Czech German border,mid pt on border,50.25139,12.35111,4,1
2598,2598001,1986,3,20,Gibraltar,Gibraltar,36.13334,-5.35,3,1
2599,2599001,1986,8,19,Swaziland,Mababane,-26.31667,31.13333,5,1
2600,2600001,1985,7,10,Auckland New Zealand,Auckland,-36.86666,174.7667,1,1
2601,2601001,1986,7,20,Istanbul,"Istanbul, Turkey",41.01861,28.96472,1,1
2602,2602001,1978,6,21,"Turkmen Republic, USSR",Turkmenistan,40,60,5,1
2603,2603001,1918,11,11,.,lith east border,55.67,26.78,2,1
2604,2604001,1919,1,3,.,usr-lat border,56.859,28.025,4,1
2605,2605001,1918,11,22,.,usr-est border,58.498,27.688,4,1
2606,2606001,1917,12,30,.,usr-jap border,42.57,130.55,4,1
2608,2608001,1966,10,30,"Accra, Guinea","Accra, Ghana",5.55,-0.2166667,5,1
2610,2610001,1960,11,21,Zaire,"Kinshasa, DRC",-4.329722,15.315,5,1
2612,2612001,1960,7,31,Zaire,"Kinshasa, DRC",-4.329722,15.315,5,1
2615,2615001,1972,10,11,Burundi,Bujumbura,-3.374444,29.35806,5,1
2616,2616001,1971,1,14,Senegalese-Gambian frontier,"Banjul, Gambia",13.45306,-16.5775,4,1
2617,2617001,1973,7,13,Burundian-Tanzanian border,"Muyinga, Burundi",-2.844445,30.34028,4,1
2619,2619001,1971,4,29,"Near Mokambo,Zaire","Mokambo, DRC",-12.41667,28.35,2,1
2620,2620001,1971,8,21,Zairean-Congolese border,"Kinshasa, DRC",-4.329722,15.315,4,1
2621,2621001,1971,7,7,Ugandan-Rwanda border,"Kabale, Uganda",-1.3258,30.1683,4,1
2622,2622001,1971,4,20,Ugandan-Sudanes border,"Nimule, Uganda",3.6,32.05,4,1
2623,2623001,1963,7,25,Preah Vihear,"Preah Vihear, Cambodia",14.4,104.8333,1,1
2624,2624001,1964,12,26,Koh Kong Island,"Koh Kong, Cambodia",11.33333,103.0833,3,1
2625,2625001,1949,4,14,Kashmir,Kashmir,34.56667,74.75,3,1
2626,2626001,1952,10,4,Kashmir,Kashmir,34.56667,74.75,3,1
2627,2627001,1956,3,18,Punjab,"Punjab, India",31,72,3,1
2628,2628001,1958,11,10,Assam,"Assam, India",26,93,3,1
2629,2629001,1962,1,6,Kashmir,Kashmir,31.34222,74.36528,3,1
2630,2630001,1963,10,16,Kashmir,Kashmir,31.34222,74.36528,3,1
2631,2631001,1965,1,-9,Rann of Kutch,"Rann of Kutch, India",24,70,3,1
2632,2632001,1966,4,-9,Kashmir,"Kashmir, pakistan",31.34222,74.36528,3,1
2633,2633001,1969,3,-9,"Cooch Behar, West Bengal","Cooch Behar, India",26.31667,89.43333,1,1
2634,2634001,1969,8,12,Air space above Northern India,"Dehra Dun, India",30.31667,78.03333,3,1
2635,2635001,1969,12,20,"Malda district, West Bengal","Malda, India",25,88,3,1
2637,2637001,1970,7,15,Kashmir,"Kashmir, pakistan",31.34222,74.36528,3,1
2638,2638001,1972,5,5,Kashmir,Kashmir,31.34222,74.36528,3,1
2639,2639001,1981,7,7,Kashmir,Kashmir,34.30667,71.80278,3,1
2640,2640001,1982,9,8,Kashmir,Kashmir,34.30667,71.80278,3,1
2641,2641001,1983,10,20,Kashmir,Kasmir,34.30667,71.80278,3,1
2642,2642001,1984,6,25,Nobra Valley-Siachen glacier (Kashmir),Siachen Glacier,35.18333,77.2,3,1
2643,2643001,1985,1,17,Siachen glacier,Siachen Glacier,35.18333,77.2,3,1
2644,2644001,1986,10,14,Kashmir,Kashmir,34.30667,71.80278,3,1
2645,2645001,1915,2,18,"North Sea, Baltic Sea",North Sea,55.33333,3,5,1
2648,2648001,1916,1,11,Corfu,"Corfu, Greece",39.66667,19.75,5,1
2683,2683001,1887,3,26,Coast of Haiti-Tortuga island,Ile de la Tortue,20.05,-72.95,3,1
2700,2700001,1919,7,-9,Amur River,"Amur River, Russ",52.93333,141.1667,4,1
2701,2701001,1919,8,20,Amur River,"Amur River, Russ",52.93333,141.1667,4,1
2702,2702001,1919,8,-9,Amur River,"Amur River, Russ",52.93333,141.1667,4,1
2703,2703001,1945,9,13,Xinjiang Province,"Xinjiang, China",35.61278,111.2178,3,1
2704,2704001,1945,10,6,Manchuria,"Harbin, China",45.75,126.65,3,1
2706,2706001,1962,4,22,Xingjiang province,"Xingjiang, China",35.61278,111.2178,3,1
2707,2707001,1964,10,15,china-ussr border,mid pt on border,53.29389,120.8903,4,1
2708,2708001,1965,12,-9,"border, Mongolia",Ulaanbaatar,47.91667,106.9167,4,1
2709,2709001,1967,1,26,Beijing,"Beijing, China",39.92889,116.3883,1,1
2710,2710001,1967,8,10,"Darien, Beijing","Dairen, China",38.91222,121.6022,1,1
2711,2711001,1968,8,-9,china-ussr border,mid pt on border,53.29389,120.8903,4,1
2712,2712001,1973,9,-9,Mongolia,Ulaanbaatar,47.91667,106.9167,5,1
2713,2713001,1974,12,-9,.,"pt where borders of usr, chn, mon meet",49.95,116.95,2,1
2714,2714001,1977,7,4,Xiajiang province,"Xiajiang (Jiangxi), China",25.75556,108.6919,3,1
2715,2715001,1978,3,11,Amur and Ussuri Rivers,"Amur River, Russia",52.93333,141.1667,4,1
2716,2716001,1979,1,27,Xinjiang province,"Xinjiang, China",35.61278,111.2178,3,1
2717,2717001,1980,10,5,"Argun River, Xinjiang Province","Argun River, China",53.33333,121.4667,4,1
2718,2718001,1986,7,12,"Amur, Ussuri Rivers","Amur River, Russia",52.43333,141.1667,4,1
2721,2721001,1871,7,12,Sakhalin Island,"Sakhalin, Russ. Fed.",51,143,3,1
2722,2722001,1920,4,28,Sakhalin Island,"Sakhalin, Russia",51,143,3,1
2724,2724001,1936,2,26,Amur,"Amur River, Russ",52.93333,141.1667,4,1
2725,2725001,1945,8,10,Nomahan,coast of USSR near jap,45.30917,137.1644,4,1
2726,2726001,1975,4,-9,Sea of Okhotsk,Sea of Okhotsk,55,150,5,1
2727,2727001,1978,5,20,Kurile Islands,"Kuril Islands, Russia",46.16667,152,3,1
2728,2728001,1984,11,12,Kurile Islands,Kurile Islands,46.16667,152,3,1
2729,2729001,1963,4,22,Quan Phu Quoe,"Quan Phu, Vietnam",19.93333,105.5167,1,1
2730,2730001,1962,11,20,Parrots Beak,"parrots beak, cambodia",10.92583,106.1011,3,1
2731,2731001,1960,3,19,Quan Phu Quac Island,"Quan Phu, Vietnam",19.93333,105.5167,3,1
2732,2732001,1959,6,20,Parrots Beak,"Parrots Beak, cambodia",10.92583,106.1011,3,1
2734,2734001,1987,8,10,Persian Gulf,Persian Gulf,27,51,5,1
2735,2735001,1987,9,2,Near Barra del Colorado,Barranco Colorado,-6.516667,-79.71667,2,1
2736,2736001,1987,11,29,Dominican Republic/Haiti border,"Comendador, DR",18.8775,-71.70277,4,1
2737,2737001,1987,3,17,Near Newfoundland,Grand Banks of Newfoundland,45,-53,3,1
2738,2738001,1987,4,1,territorial waters of Sweden,Oland,57.06667,9.6,4,1
2739,2739001,1987,5,17,Persian Gulf,Persian Gulf,27,51,5,1
2740,2740001,1987,1,27,Persian Gulf,Persian Gulf,27,51,5,1
2741,2741001,1987,9,24,Panama,Panama City,27,51,5,1
2742,2742001,1987,5,1,Cuba,Havana,23.13194,-82.36417,5,1
2743,2743001,1978,8,6,Egyptian/Libyan border,"Siwa, Egypt",29.2,25.51667,4,1
2744,2744001,1961,7,25,"Fort of Ajuda, Ouidah Dahomey","Ajuda, Azores",38.7,-9.2,1,1
2745,2745001,1988,10,22,Border of Indonesia/Papau New Guinea,"Ninati, Indonesia",-5.733333,140.95,4,1
2746,2746001,1988,5,4,Spratlys Islands,Spratly Island,8.633333,111.9167,3,1
2747,2747001,1988,8,8,waters near Burma,Rangoon,16.78333,96.16666,4,1
2748,2748001,1988,11,14,Waters of Papua New Guinea,Bismarck Sea,-4,148,4,1
2749,2749001,1988,2,20,Spratly Islands,Spratly Island,8.633333,111.9167,3,1
2750,2750001,1988,4,29,Taiwan strait,Taiwan Straits,24,119,5,1
2751,2751001,1988,5,18,Persia Gulf,Persian Gulf,27,51,5,1
2752,2752001,1988,4,19,Mubarak,Mubarras Oil Field,24.5,53.68333,1,1
2753,2753001,1988,10,10,Swaziland,Mbabane,-26.31667,31.13333,5,1
2754,2754001,1988,3,28,Botswana,Gaborone,-24.64639,25.91195,5,1
2755,2755001,1988,2,14,Zimbabwe,Harare,-17.83333,31.05,5,1
2756,2756001,1988,8,8,Angola,Luanda,-8.838333,13.23444,5,1
2757,2757001,1988,10,7,Sudan,Khartoum,15.58806,32.53417,5,1
2758,2758001,1988,5,14,"Larak Island, Persian Gulf","Larak Island, Iran",26.85333,56.35556,3,1
2759,2759001,1988,7,7,Persian Gulf,Persian Gulf,27,51,5,1
2760,2760001,1988,12,11,Buffer zone on Cyprus,"Nicosia, Cyprus",35.16667,33.36666,4,1
2761,2761001,1988,5,28,"Atheinou, Cyprus",Athienou,35.06667,33.54167,1,1
2762,2762001,1988,5,27,Persian Gulf,Persian Gulf,27,51,5,1
2763,2763001,1988,6,11,Persian gulf,Persian Gulf,27,51,5,1
2764,2764001,1988,5,14,Larak Island in Persian Gulf,"Larak Island, Iran",26.85333,56.35556,3,1
2765,2765001,1988,3,21,Persian gulf,Persian Gulf,27,51,5,1
2766,2766001,1988,1,20,Persian Gulf,Persian Gulf,27,51,5,1
2767,2767001,1988,5,14,Persian Gulf,Persian Gulf,27,51,5,1
2768,2768001,1988,8,16,Columbia-Venezuelan border,"Culebra, Colombia",6.098611,-69.38667,4,1
2769,2769001,1988,1,31,Persian Gulf,Persian Gulf,27,51,5,1
2770,2770001,1988,9,9,Costa Rica near border,"Los Chiles, Costa Rica",11.03333,-84.71667,4,1
2771,2771001,1988,9,29,Nicaragua/Honduras border,mid pt of border,14.09917,-85.53555,4,1
2772,2772001,1988,4,19,Persian Gulf,Persian Gulf,27,51,5,1
2773,2773001,1988,4,14,off coast of Newfoundland,Grand Banks of Newfoundland,45,-53,3,1
2774,2774001,1988,2,12,Persian Gulf,Persian Gulf,27,51,5,1
2775,2775001,1988,12,30,110 km off Libyan coast,"Gulf of Sidra, Libya",31.5,18,3,1
2776,2776001,1987,5,20,Sayaboung province Laos,Sayaboung / Viangchan,17.96667,102.6,3,1
2777,2777001,1987,4,12,waters of Burma,Rangoon,16.78333,96.16666,4,1
2778,2778001,1987,3,15,Palk straight,Palk Strait,10,79.75,4,1
2779,2779001,1987,6,1,Border with Toripura,"Tripura, India",24,92,1,1
2780,2780001,1987,4,15,Spratly Island,Spratly Island,8.633333,111.9167,3,1
2782,2782001,1987,6,8,Taiwan Straight,Taiwan Straits,24,119,5,1
2783,2783001,1987,10,11,Oman S.Yemen boreder area,"Habarut, Yemen",17.3,52.73333,4,1
2784,2784001,1987,10,1,Perisan Gulf,Persian Gulf,27,51,5,1
2785,2785001,1987,11,20,Persian Gulf,Persian Gulf,27,51,5,1
2786,2786001,1987,7,28,Iraq Syria border,"Abu Kamal, Syria",34.45,40.91861,4,1
2787,2787001,1987,3,8,Turkey Syria border,"Akcakale, Turkey",40.16667,35.76667,4,1
2788,2788001,1987,8,21,In Turkey (near Iraqi border),"Hakkari, Turkey",37.56667,43.73333,4,1
2789,2789001,1987,12,6,Persian Gulf,Persian Gulf,27,51,5,1
2790,2790001,1987,12,17,Persian Gulf,Persian Gulf,27,51,5,1
2791,2791001,1987,10,1,Persian Gulf,Persian Gulf,27,51,5,1
2792,2792001,1987,10,2,Persian gulf,Persian Gulf,27,51,5,1
2793,2793001,1987,9,3,Persian Gulf,Persian Gulf,27,51,5,1
2794,2794001,1987,9,2,Persian Gulf,Persian Gulf,27,51,5,1
2795,2795001,1987,8,15,Persian Gulf,Persian Gulf,27,51,5,1
2796,2796001,1987,5,22,Persian Gulf,Persian Gulf,27,51,5,1
2797,2797001,1987,5,11,Kuwait and Kuwaiti waters,Kuwait,29.36972,47.97833,5,1
2798,2798001,1987,8,2,Persian Gulf,Persian Gulf,27,51,5,1
2799,2799001,1987,6,-9,Turkish Iran border region,"Qotur, Iran",38.46611,44.44222,4,1
2800,2800001,1987,12,27,Mozambique s.Africa border,Lebombo,-25.46667,31.96667,4,1
2801,2801001,1987,5,29,"Maputo, Mozambique",Maputo,-25.96528,32.58917,1,1
2802,2802001,1987,7,24,Ethiopia Sudan border,"Qeissan, Sudan",10.73333,34.78333,4,1
2803,2803001,1986,12,5,Eastern Sudan,"Tokar, Sudan",18.43333,37.73333,3,1
2804,2804001,1987,10,20,Kenya Uganda border,"Moroto, Uganda",2.533333,34.65,4,1
2805,2805001,1987,6,3,Northwest Uganda,Rhino Camp,2.966667,31.4,3,1
2806,2806001,1987,1,15,Mindoulin region of Congo,"Mindouli, Congo",-4.268333,14.38389,3,1
2807,2807001,1987,5,2,Borno State Nigeria,"Borno, Nigeria",11.5,13,3,1
2808,2808001,1987,6,19,Persian Gulf,Persian Gulf,27,51,5,1
2809,2809001,1987,4,1,Western Sahara,Laayoune,27.15361,-13.20333,5,1
2810,2810001,1987,4,9,.,saf-bot border,-25.72,25.52,4,1
2811,2811001,1987,4,29,Persian Gulf,Persian Gulf,27,51,5,1
2812,2812001,1987,8,13,Gulf of Venezuela,Gulf of Venezuela,11.5,-71,3,1
2813,2813001,1987,2,13,waters of Argentina,mid pt of coast,42.50139,-63.99361,4,1
2815,2815001,1987,6,20,Persian Gulf,Persian Gulf,27,51,5,1
2816,2816001,1987,6,15,Bay of Gdansk,Bay of Gdansk,54.66667,19.25,3,1
2817,2817001,1987,6,9,Persian Gulf,Persian Gulf,27,51,5,1
2818,2818001,1987,9,10,Persian Gulf,Persian Gulf,27,51,5,1
2819,2819001,1987,7,7,Persian Gulf,Persian Gulf,27,51,5,1
2820,2820001,1987,8,20,Persian Gulf,Persian Gulf,27,51,5,1
2821,2821001,1987,9,3,Persian Gulf,Persian Gulf,27,51,5,1
2822,2822001,1987,9,1,Persian Gulf,Persian Gulf,27,51,5,1
2823,2823001,1987,6,30,Persian Gulf,Persian Gulf,27,51,5,1
2824,2824001,1987,12,16,Persian gulf,Persian Gulf,27,51,5,1
2825,2825001,1987,6,27,Persian Gulf,Persian Gulf,27,51,5,1
2826,2826001,1987,4,21,Persian Gulf,Persian Gulf,27,51,5,1
2827,2827001,1987,9,13,Barents Sea,Persian Gulf,27,51,5,1
2828,2828001,1987,11,23,Persian Gulf,Persian Gulf,27,51,5,1
2829,2829001,1987,10,3,Bulgaria,Sofia,42.68333,23.31667,5,1
2830,2830001,1987,9,14,waters of Bulgaria,Byala,42.8347,27.9006,4,1
2831,2831001,1987,1,3,waters of Lebanon,Beirut,33.87194,35.50972,4,1
2832,2832001,1987,5,18,Persian Gulf,Persian Gulf,27,51,5,1
2833,2833001,1987,12,14,Persian Gulf,Persian Gulf,27,51,5,1
2835,2835001,1878,8,-9,Thessaly,Thessalia,39.5,22,3,1
2836,2836001,1885,5,25,"Epirus, Greece",Epirus,39.66667,20.66667,1,1
2837,2837001,1896,5,18,.,md point of GRE coast,36.63,23.17,4,1
2838,2838001,1959,2,14,Waters off Japan and Korea,"Tsushima, Japan",37.56667,140.75,4,1
2839,2839001,1959,11,16,Korea Strait,"Tsushima, Japan",34,129,4,1
2841,2841001,1959,6,13,Thailand near Burma border,"Mae Hong Son, Thailand",19.26667,97.93333,4,1
2842,2842001,1956,12,21,Goa,"Goa, India",15.58333,74,1,1
2843,2843001,1956,4,19,Suez Canal Zone,"Suez, Egypt",29.91667,32.55,4,1
2844,2844001,1956,2,13,Saudi Arabia,Riyadh,24.64083,46.77278,5,1
2845,2845001,1957,12,13,Waters near Chile,"Antofagasta, Punta",-52.46667,-69.41666,4,1
2846,2846001,1957,6,8,Waters near Albania,"Durres, Albania",41.32306,19.44139,4,1
2847,2847001,1955,3,24,Near Keucke Is.,waters between usr-jap,44.02417,138.73,3,1
2848,2848001,1957,4,14,Waters near Norway,Bergen,60.39111,5.324722,4,1
2849,2849001,1957,7,29,Czechoslovakia,Prague,50.08333,14.46667,5,1
2850,2850001,1957,3,19,India,New Delhi,28.6,77.2,5,1
2852,2852001,1958,6,4,Kaigiara Island,waters between usr-jap,44.02417,138.73,3,1
2853,2853001,1958,5,7,Waters near China,waters between jap-chn,31.195,125.7044,4,1
2854,2854001,1958,6,8,East Germany,Berlin,52.51667,13.4,5,1
2855,2855001,1958,6,2,East Germany,Berlin,52.51667,13.4,5,1
2857,2857001,1958,1,7,Albania,Tirana,41.3275,19.81889,5,1
2858,2858001,1958,1,1,Albania,Tirana,41.3275,19.81889,5,1
2859,2859001,1959,3,20,Taiwan Straits,Taiwan Straits,24,119,5,1
2860,2860001,1959,3,28,Waters near Brazil,mid pt of coast,-10.32306,-36.33306,4,1
2861,2861001,1959,1,27,Near Kuril Is.,"Kuril Islands, Russia",46.16667,152,3,1
2862,2862001,1959,2,28,Paracel Islands,Paracel Islands,16.5,112.25,3,1
2863,2863001,1959,2,28,Near Luzon,"Luzon, Philippines",16,121,2,1
2865,2865001,1958,8,27,North Sea,North Sea,55.33333,3,5,1
2866,2866001,1959,1,11,Waters near Israel,Tel Aviv,32.06667,34.76667,4,1
2867,2867001,1959,12,17,Dominican Republic,Santo Domingo,18.46667,-69.9,5,1
2869,2869001,1959,4,10,Pakistan,Karachi,24.86667,67.05,5,1
2870,2870001,1959,3,19,Switzerland,Berne,46.91667,7.466667,5,1
2871,2871001,1959,3,16,"Iran, near USSR border","Mashhad, Iran",35.60305,52.47472,4,1
2873,2873001,1960,7,16,Near Kurile Is.,"Kuril Islands, Russia",46.16667,152,3,1
2874,2874001,1960,5,8,Sea of Japan,Sea of Japan,43.5,135.75,5,1
2875,2875001,1960,2,28,waters off Iceland,Reykyavik,64.15,-21.95,4,1
2876,2876001,1960,10,8,Austria and West German border,"Kufstein, Austria",47.58333,12.16667,4,1
2877,2877001,1960,9,25,Austria/Italy Border,"Sillian, Austria",46.75278,12.42111,4,1
2878,2878001,1960,9,25,Austria/Hungary Border,mid pt of border,47.47445,16.58167,4,1
2880,2880001,1961,11,3,near Arsila,"Arsila, Morocco",35.46556,-6.040278,2,1
2882,2882001,1961,6,11,Near Kuril Islands,"Kuril Islands, Russia",46.16667,152,3,1
2883,2883001,1961,5,30,Faroe Islands,Faroe Islands,62,-7,3,1
2884,2884001,1961,4,4,Kingying Island,china-viet waters,19.57778,107.9203,3,1
2885,2885001,1960,12,15,India/Pakistan Border,"Kasur, Pakistan",31.115,74.45472,4,1
2887,2887001,1961,1,19,Ifni,"Ifni, Morocco",29.25,-10.13333,1,1
2888,2888001,1962,6,21,Waters near Hokkaido,"Hokkaido, Japan",44,143,4,1
2889,2889001,1962,5,13,Sea of Japan,Sea of Japan,43.5,135.75,5,1
2890,2890001,1962,3,11,Guinea/Port. Guinea Border,"Boe, Guinea-Bissau",11.75,-14.21667,4,1
2891,2891001,1966,10,17,near Matsu,"Matsu Tao, China",26.14889,119.9372,2,1
2892,2892001,1963,2,6,Taiwan Strait,Taiwan Straits,24,119,5,1
2893,2893001,1963,12,3,Waters near Hokkaido,"Hokkaido, Japan",44,143,4,1
2894,2894001,1963,11,17,"near Halnahera, indonesia",halmahera,1.501667,127.7069,2,1
2895,2895001,1963,9,27,Waters off South Korea,"Pusan, S.Korea",35.10278,129.0403,4,1
2896,2896001,1963,8,27,Baltic Sea,Baltic Sea,56,18,5,1
2897,2897001,1963,11,21,Northern Iran,"Tabriz, Iran",38.08,46.29194,3,1
2898,2898001,1963,10,4,Czechoslovakia,Prague,50.08333,14.46667,5,1
2899,2899001,1963,3,15,"Bering Straits, Alaska",Bering Strait,66,-169,5,1
2900,2900001,1964,11,30,waters near China,mid pt on coastline,27.76722,120.8078,4,1
2901,2901001,1964,7,17,Black Sea,Black Sea,43,35,5,1
2902,2902001,1964,11,19,.,sea between ger and den,54.479,12.791,5,1
2903,2903001,1964,9,21,off Cape Lopatka,"Cape Lopatka, Russia",71.78333,149.8667,2,1
2904,2904001,1964,3,30,waters near Indonesia,Banda Sea,-5,128,4,1
2905,2905001,1964,1,29,waters near South Korea,"Pusan, S.Korea",35.10278,129.0403,4,1
2906,2906001,1964,12,19,Egypt (UAR),Cairo,30.05,31.25,5,1
2907,2907001,1964,9,24,Waters off Sweden,Gotland,57.5,18.55,4,1
2908,2908001,1964,9,11,West Germany,Bonn,50.73333,7.1,5,1
2909,2909001,1964,1,28,East Germany,Berlin,52.51667,13.48333,5,1
2910,2910001,1965,6,12,Mediterranean Sea,Mediterranean Sea,35,20,5,1
2911,2911001,1965,10,27,Waters near Hokkaido,"Hokkaido, Japan",44,143,4,1
2912,2912001,1965,4,25,waters of South Vietnam,Astrolabe Reefs,-19.81667,165.5833,4,1
2913,2913001,1965,3,5,Indonesia waters,"Irian Jaya, Indonesia",-5,138,4,1
2914,2914001,1965,1,11,Banda Sea and near Borneo,Banda Sea,-5,128,4,1
2915,2915001,1965,5,28,West Germany,Bonn,50.73333,7.1,5,1
2916,2916001,1965,4,28,Japan Sea,Japan Sea,43.5,135.75,5,1
2917,2917001,1965,4,4,Israel,Tel Aviv,32.06667,34.76667,5,1
2918,2918001,1966,4,25,near Singapore,"Singapore, Singapore",1.293056,103.8558,2,1
2919,2919001,1966,3,14,waters near Korea,"Pusan, S.Korea",35.7,128.0333,4,1
2920,2920001,1966,1,22,Yellow Sea,Yellow Sea,36,124,5,1
2921,2921001,1966,7,15,"Heringer, West Germany","Heringer, Germany",51.41667,10.83333,1,1
2922,2922001,1968,6,17,Waters near Venezuela,Bonaire Basin,11.41667,-67.5,4,1
2923,2923001,1968,5,4,waters near Brazil,mid pt of coast,-10.32306,-36.33306,4,1
2924,2924001,1968,2,13,near Egypt,Red Sea,19,39.5,5,1
2925,2925001,1968,9,28,Kuril Islands,"Kuril Islands, Russia",46.16667,152,3,1
2926,2926001,1968,6,30,Hong Kong,Hong Kong,22.28333,114.15,1,1
2927,2927001,1968,6,22,waters off Argentina,Golfo San Matias,-41.5,-64.25,4,1
2928,2928001,1968,6,30,Kuril Island,"Kuril Islands, Russia",46.16667,152,3,1
2929,2929001,1965,10,5,South China Sea and over China,South China Sea,15,115,5,1
2931,2931001,1967,4,28,Waters near Crete,Gulf of Iraklion,35.38334,25.13333,4,1
2932,2932001,1967,10,12,Baltic Sea,Baltic Sea,56,18,5,1
2933,2933001,1967,4,30,Shetland Islands,"Shetland Isl, UK",60.5,-1,3,1
2934,2934001,1967,3,2,waters near Alaska,Bering Sea,60,177,4,1
2935,2935001,1967,9,8,eastern China,"Jilin, China",45.25444,131.2397,3,1
2936,2936001,1969,9,19,Gulf of Torlsin,waters near china & viet,19.79417,107.6239,3,1
2937,2937001,1969,8,9,Shikotan Island,"Shikotan, Russia",43.78333,146.75,3,1
2938,2938001,1969,2,4,Gulf of Siam,Gulf of Siam,10,102,3,1
2939,2939001,1969,1,9,.,off north coast DEN,57.206,9.489,4,1
2940,2940001,1968,11,20,waters near Venezuela,Bonaire Basin,11.41667,-67.5,4,1
2941,2941001,1969,4,15,.,PRK-KOR border,38.27,127.3,4,1
2942,2942001,1970,11,15,waters near Guatemala,Bahia de Amatique,13.7358,-90.1392,4,1
2943,2943001,1971,12,15,Bahamas' waters,Nassau,25.08333,-77.35,4,1
2944,2944001,1971,1,29,Baltic Sea,Baltic Sea,56,18,5,1
2945,2945001,1971,8,14,Paracel Islands,Paracel Islands,16.5,112.25,3,1
2946,2946001,1971,2,24,waters between USA and Cuba,Straits of Florida,25,-79.75,4,1
2947,2947001,1971,2,9,"Kwangtung Province, China",Kwangtung,23,113,3,1
2948,2948001,1972,8,22,near coast of North Vietnam,Gulf of Tonkin,20,108,4,1
2949,2949001,1972,1,17,Bering Sea,Bering Sea,60,-175,5,1
2950,2950001,1973,3,21,Waters south of Malta,"Valletta, Malta",35.89972,14.51472,3,1
2951,2951001,1974,2,23,"Guantanimo, Cuba",Guantanamo,20.14528,-75.20611,1,1
2952,2952001,1974,9,14,Waters off coast of Maine,Gulf of Maine,43,-68.5,3,1
2953,2953001,1975,9,2,off coast of Maine,Gulf of Maine,43,-68.5,3,1
2954,2954001,1975,8,17,Waters off Cape Cod,"cape cod, us",41.9125,-70.22444,3,1
2955,2955001,1975,4,24,waters near Burma,Mouths of Ayeyarwady,15.68333,95.08334,4,1
2956,2956001,1976,8,1,Yellow Sea,Yellow Sea,36,124,5,1
2957,2957001,1976,5,5,"Panama Canal, Panama",Panama Canal,9.333333,-79.91666,4,1
2958,2958001,1976,1,7,"South of Florida, waters of USA",Florida Strait,25,-79.75,3,1
2959,2959001,1976,11,25,South Yemen,Aden,12.76556,45.01694,3,1
2960,2960001,1976,10,15,North Korea,Pyongyang,39.01944,125.7547,5,1
2961,2961001,1976,4,12,Israel,Tel Aviv,32.06667,34.76667,5,1
2962,2962001,1977,4,30,Cuban coastal waters,Nicholas Channel,23.41667,-80.08334,4,1
2963,2963001,1977,11,12,Sea of Japan,Japan Sea,43.5,135.75,5,1
2964,2964001,1977,9,7,Goto Island,"Goto Retto, Japan",32.83333,129,3,1
2965,2965001,1978,7,30,"off Cape Misurta, Libya",Cape Misurata,32.36806,15.21778,2,1
2966,2966001,1978,4,13,Senkaku Islands,"Senkaku Shoto, Japan",25.83333,123.5833,3,1
2967,2967001,1979,11,14,waters off Peru,Lima,-12.05,-77.05,4,1
2968,2968001,1979,8,28,British Columbia,"British Columbia, Canada",55,-125,3,1
2969,2969001,1980,7,13,Waters near West Africa,"Dakar, Senegal",14.66667,-17.43333,5,1
2970,2970001,1981,8,31,North Sea,North Sea,55.33333,3,5,1
2971,2971001,1981,8,14,North Korea,Pyongyang,39.01944,125.7547,5,1
2972,2972001,1981,7,17,Caribbean Sea,Caribbean Sea,15,-75,5,1
2973,2973001,1982,6,5,Swedish waters,Oland,56.98333,16.6,5,1
2974,2974001,1982,4,24,Sea of Japan,Japan Sea,43.5,135.75,5,1
2975,2975001,1982,3,8,South China Sea,South China Sea,15,115,5,1
2976,2976001,1982,4,3,Waters off Japan,Tsushima,34.66667,129,4,1
